{
"RECORDS":[
{
"id":"p001",
"longitude":120.947238,
"latitude":30.449376,
"feature":"核电站",
"name":"秦山核电站",
"location":"浙江省嘉兴市海盐县"
},
{
"id":"p002",
"longitude":114.534146,
"latitude":22.598792,
"feature":"核电站",
"name":"大亚湾核电站",
"location":"广东省深圳市大鹏新区大鹏半岛"
},
{
"id":"p003",
"longitude":114.102323,
"latitude":22.547652,
"feature":"核电站",
"name":"岭澳核电站",
"location":"广东省深圳市福田区"
},
{
"id":"p004",
"longitude":119.471681,
"latitude":34.691386,
"feature":"核电站",
"name":"田湾核电站",
"location":"江苏省连云港市连云区连高路"
},
{
"id":"p005",
"longitude":120.222306,
"latitude":27.344926,
"feature":"核电站",
"name":"宁德核电站",
"location":"福建省福鼎市江滨大道"
},
{
"id":"p006",
"longitude":121.499274,
"latitude":39.795558,
"feature":"核电站",
"name":"红沿河核电站",
"location":"辽宁省大连市红沿河镇"
},
{
"id":"p007",
"longitude":111.980833,
"latitude":21.872607,
"feature":"核电站",
"name":"阳江核电站",
"location":"广东省阳江市江城区"
},
{
"id":"p008",
"longitude":108.822607,
"latitude":19.4295,
"feature":"核电站",
"name":"昌江核电站",
"location":"海南省海尾镇"
},
{
"id":"p009",
"longitude":124.417065,
"latitude":40.146829,
"feature":"火力发电站",
"name":"华能丹东电厂",
"location":"辽宁丹东"
},
{
"id":"p010",
"longitude":121.667999,
"latitude":39.002037,
"feature":"火力发电站",
"name":"华能（大连）热电厂",
"location":"辽宁大连"
},
{
"id":"p011",
"longitude":114.437782,
"latitude":38.038867,
"feature":"火力发电站",
"name":"华能上安电厂",
"location":"河北石家庄"
},
{
"id":"p012",
"longitude":116.255672,
"latitude":37.448089,
"feature":"火力发电站",
"name":"华能德州电厂",
"location":"山东德州市"
},
{
"id":"p013",
"longitude":122.216315,
"latitude":37.4487,
"feature":"火力发电站",
"name":"华能威海电厂",
"location":"山东威海"
},
{
"id":"p014",
"longitude":116.573414,
"latitude":35.396665,
"feature":"火力发电站",
"name":"华能济宁电厂",
"location":"山东济宁"
},
{
"id":"p015",
"longitude":118.791212,
"latitude":35.643178,
"feature":"火力发电站",
"name":"华能日照电厂",
"location":"山东日照"
},
{
"id":"p016",
"longitude":121.19086,
"latitude":31.657015,
"feature":"火力发电站",
"name":"华能太仓电厂",
"location":"江苏省苏州市太仓市"
},
{
"id":"p017",
"longitude":118.969279,
"latitude":33.599789,
"feature":"火力发电站",
"name":"华能淮阴电厂",
"location":"江苏省淮安市"
},
{
"id":"p018",
"longitude":118.893312,
"latitude":32.207259,
"feature":"火力发电站",
"name":"华能南京电厂",
"location":"江苏南京"
},
{
"id":"p019",
"longitude":120.780239,
"latitude":32.036408,
"feature":"火力发电站",
"name":"华能南通电厂",
"location":"江苏南通"
},
{
"id":"p020",
"longitude":121.416098,
"latitude":31.463225,
"feature":"火力发电站",
"name":"华能上海石洞口第一电厂",
"location":"上海市"
},
{
"id":"p021",
"longitude":121.417019,
"latitude":31.462783,
"feature":"火力发电站",
"name":"华能上海石洞口第二电厂",
"location":"上海市"
},
{
"id":"p022",
"longitude":119.936991,
"latitude":30.998634,
"feature":"火力发电站",
"name":"华能长兴电厂",
"location":"浙江省湖州市长兴县"
},
{
"id":"p023",
"longitude":119.49751,
"latitude":25.988402,
"feature":"火力发电站",
"name":"华能福州电厂",
"location":"福建省福州市仓山区"
},
{
"id":"p024",
"longitude":116.751262,
"latitude":23.328151,
"feature":"火力发电站",
"name":"华能汕头燃煤电厂",
"location":"广东省汕头市金平区"
},
{
"id":"p025",
"longitude":116.706594,
"latitude":23.421093,
"feature":"火力发电站",
"name":"华能汕头燃机电厂",
"location":"广东省汕头市金平区"
},
{
"id":"p026",
"longitude":121.15495,
"latitude":28.127957,
"feature":"火力发电站",
"name":"华能玉环电厂",
"location":"浙江台州"
},
{
"id":"p027",
"longitude":112.727396,
"latitude":35.173268,
"feature":"火力发电站",
"name":"华能沁北电厂",
"location":"河南省济源市"
},
{
"id":"p028",
"longitude":112.747029,
"latitude":37.692772,
"feature":"火力发电站",
"name":"华能榆社电厂",
"location":"山西晋中"
},
{
"id":"p029",
"longitude":112.747029,
"latitude":37.692772,
"feature":"火力发电站",
"name":"华能辛店电厂",
"location":"山东淄博"
},
{
"id":"p030",
"longitude":106.577658,
"latitude":29.60911,
"feature":"火力发电站",
"name":"华能重庆分公司",
"location":"重庆市"
},
{
"id":"p031",
"longitude":114.939533,
"latitude":27.031774,
"feature":"火力发电站",
"name":"华能井冈山电厂",
"location":"江西吉安"
},
{
"id":"p032",
"longitude":106.792453,
"latitude":35.506195,
"feature":"火力发电站",
"name":"华能平凉电厂",
"location":"甘肃平凉"
},
{
"id":"p033",
"longitude":113.169775,
"latitude":29.441649,
"feature":"火力发电站",
"name":"华能岳阳电厂",
"location":"湖南岳阳"
},
{
"id":"p034",
"longitude":122.204513,
"latitude":40.590234,
"feature":"火力发电站",
"name":"华能营口电厂",
"location":"辽宁省营口市"
},
{
"id":"p035",
"longitude":114.171058,
"latitude":36.491577,
"feature":"火力发电站",
"name":"华能邯峰电厂",
"location":"河北邯郸"
},
{
"id":"p036",
"longitude":124.484671,
"latitude":45.323371,
"feature":"火力发电站",
"name":"长山热电厂",
"location":"吉林省松原市"
},
{
"id":"p037",
"longitude":111.402823,
"latitude":29.5917,
"feature":"火力发电站",
"name":"湖南省石门电厂",
"location":"湖南常德"
},
{
"id":"p038",
"longitude":130.997606,
"latitude":45.30086,
"feature":"火力发电站",
"name":"鸡西发电厂",
"location":"黑龙江鸡西"
},
{
"id":"p039",
"longitude":112.765185,
"latitude":34.732928,
"feature":"火力发电站",
"name":"洛阳首阳山电厂",
"location":"河南洛阳"
},
{
"id":"p040",
"longitude":112.397198,
"latitude":34.685622,
"feature":"火力发电站",
"name":"洛阳热电厂",
"location":"河南洛阳"
},
{
"id":"p041",
"longitude":111.044848,
"latitude":34.689386,
"feature":"水力发电站",
"name":"三门峡华阳发电公司",
"location":"河南三门峡"
},
{
"id":"p042",
"longitude":111.20111,
"latitude":34.78172,
"feature":"风力发电站",
"name":"大唐陕县风力发电",
"location":"河南三门峡"
},
{
"id":"p043",
"longitude":115.177482,
"latitude":36.817704,
"feature":"火力发电站",
"name":"河北马头电力公司",
"location":"河北邯郸"
},
{
"id":"p044",
"longitude":117.588539,
"latitude":39.844042,
"feature":"火力发电站",
"name":"唐山发电总厂",
"location":"河北唐山"
},
{
"id":"p045",
"longitude":116.360747,
"latitude":39.806402,
"feature":"火力发电站",
"name":"北京大唐张家口发电总厂",
"location":"北京市"
},
{
"id":"p046",
"longitude":103.624716,
"latitude":36.134673,
"feature":"火力发电站",
"name":"兰州西固热电有限公司",
"location":"甘肃兰州"
},
{
"id":"p047",
"longitude":117.529145,
"latitude":31.80573,
"feature":"火力发电站",
"name":"合肥二电厂",
"location":"安徽合肥"
},
{
"id":"p048",
"longitude":117.040492,
"latitude":32.667655,
"feature":"火力发电站",
"name":"田家庵发电厂",
"location":"安徽淮南"
},
{
"id":"p049",
"longitude":116.144452,
"latitude":39.947136,
"feature":"火力发电站",
"name":"北京大唐高井发电厂",
"location":"北京市"
},
{
"id":"p050",
"longitude":102.601919,
"latitude":38.058895,
"feature":"火力发电站",
"name":"永昌电厂",
"location":"甘肃省武威市"
},
{
"id":"p051",
"longitude":116.256914,
"latitude":40.085468,
"feature":"火力发电站",
"name":"北京大唐陡河电厂",
"location":"北京市"
},
{
"id":"p052",
"longitude":118.740411,
"latitude":32.094476,
"feature":"火力发电站",
"name":"南京下关发电厂",
"location":"江苏南京"
},
{
"id":"p053",
"longitude":117.093978,
"latitude":32.679318,
"feature":"火力发电站",
"name":"安徽淮南洛河发电厂",
"location":"安徽淮南"
},
{
"id":"p054",
"longitude":116.007043,
"latitude":39.572292,
"feature":"火力发电站",
"name":"保定热电厂",
"location":"河北保定"
},
{
"id":"p055",
"longitude":106.155672,
"latitude":33.349753,
"feature":"火力发电站",
"name":"略阳发电厂",
"location":"陕西汉中"
},
{
"id":"p056",
"longitude":114.147968,
"latitude":38.047891,
"feature":"火力发电站",
"name":"微水发电厂",
"location":"河北石家庄"
},
{
"id":"p057",
"longitude":114.215126,
"latitude":36.428933,
"feature":"火力发电站",
"name":"峰峰发电厂含岳城电站",
"location":"河北邯郸市"
},
{
"id":"p058",
"longitude":117.476433,
"latitude":39.982467,
"feature":"火力发电站",
"name":"天津大唐盘山发电公司",
"location":"天津市"
},
{
"id":"p059",
"longitude":111.360283,
"latitude":40.203205,
"feature":"火力发电站",
"name":"内蒙大唐托克托发电公司",
"location":"内蒙古呼和浩特"
},
{
"id":"p060",
"longitude":115.953489,
"latitude":39.424636,
"feature":"火力发电站",
"name":"保定余热电厂",
"location":"河北保定"
},
{
"id":"p061",
"longitude":115.44855,
"latitude":38.886544,
"feature":"火力发电站",
"name":"华源热电有限责任公司",
"location":"河北保定"
},
{
"id":"p062",
"longitude":112.579279,
"latitude":35.473639,
"feature":"火力发电站",
"name":"阳城国际发电有限公司",
"location":"山西晋中"
},
{
"id":"p063",
"longitude":125.177521,
"latitude":42.880645,
"feature":"火力发电站",
"name":"辽源热电有限责任公司",
"location":"吉林省辽源市"
},
{
"id":"p064",
"longitude":124.871184,
"latitude":43.526133,
"feature":"火力发电站",
"name":"四平发电运营中心",
"location":"吉林省四平市"
},
{
"id":"p065",
"longitude":125.406846,
"latitude":43.892326,
"feature":"火力发电站",
"name":"长春第二热电有限公司",
"location":"吉林省长春市"
},
{
"id":"p066",
"longitude":125.345369,
"latitude":43.878521,
"feature":"火力发电站",
"name":"晖春发电有限责任公司",
"location":"吉林省长春市"
},
{
"id":"p067",
"longitude":130.994167,
"latitude":45.303625,
"feature":"火力发电站",
"name":"鸡西热电有限责任公司",
"location":"黑龙江鸡西"
},
{
"id":"p068",
"longitude":130.413659,
"latitude":46.831876,
"feature":"火力发电站",
"name":"佳木斯第二发电厂",
"location":"黑龙江佳木斯"
},
{
"id":"p069",
"longitude":117.94408,
"latitude":34.353048,
"feature":"火力发电站",
"name":"江苏徐塘发电有限公司",
"location":"江苏徐州"
},
{
"id":"p070",
"longitude":116.787571,
"latitude":33.978799,
"feature":"火力发电站",
"name":"安徽省淮北发电厂",
"location":"安徽淮北"
},
{
"id":"p071",
"longitude":117.042172,
"latitude":32.668262,
"feature":"火力发电站",
"name":"安徽淮南洛能发电公司",
"location":"安徽淮南"
},
{
"id":"p072",
"longitude":114.384182,
"latitude":36.100397,
"feature":"火力发电站",
"name":"安阳华祥电力有限公司",
"location":"河南安阳"
},
{
"id":"p073",
"longitude":113.370801,
"latitude":34.186691,
"feature":"火力发电站",
"name":"许昌龙岗发电有限公司",
"location":"河南省许昌市"
},
{
"id":"p074",
"longitude":112.992783,
"latitude":28.167604,
"feature":"火力发电站",
"name":"华银电力株洲发电厂",
"location":"湖南长沙"
},
{
"id":"p075",
"longitude":113.136044,
"latitude":27.861475,
"feature":"火力发电站",
"name":"华银株洲发电公司",
"location":"湖南湘潭"
},
{
"id":"p076",
"longitude":111.506223,
"latitude":27.610419,
"feature":"火力发电站",
"name":"金竹山电厂",
"location":"湖南娄底"
},
{
"id":"p077",
"longitude":111.490125,
"latitude":27.630324,
"feature":"火力发电站",
"name":"华银金竹山火力发电厂",
"location":"湖南娄底"
},
{
"id":"p078",
"longitude":113.006093,
"latitude":27.836288,
"feature":"火力发电站",
"name":"湘潭发电有限责任公司",
"location":"湖南湘潭"
},
{
"id":"p079",
"longitude":112.862401,
"latitude":26.388569,
"feature":"火力发电站",
"name":" 湖南省耒阳发电厂",
"location":"湖南省衡阳市耒阳市"
},
{
"id":"p080",
"longitude":109.061829,
"latitude":34.295628,
"feature":"火力发电站",
"name":"灞桥热电有限责任公司",
"location":"陕西西安市灞桥区"
},
{
"id":"p081",
"longitude":109.065007,
"latitude":34.303034,
"feature":"火力发电站",
"name":"灞桥热电厂",
"location":"陕西西安市灞桥区"
},
{
"id":"p082",
"longitude":108.930259,
"latitude":34.434208,
"feature":"火力发电站",
"name":"陕西渭河发电厂",
"location":"陕西省咸阳市渭城区"
},
{
"id":"p083",
"longitude":109.510377,
"latitude":36.610552,
"feature":"火力发电站",
"name":"陕西延安发电厂",
"location":"陕西省延安市"
},
{
"id":"p084",
"longitude":110.564868,
"latitude":35.608979,
"feature":"火力发电站",
"name":"陕西韩城发电厂",
"location":"陕西省渭南市"
},
{
"id":"p085",
"longitude":102.09733,
"latitude":38.387507,
"feature":"火力发电站",
"name":"永昌发电厂",
"location":"甘肃省金昌市"
},
{
"id":"p086",
"longitude":105.112722,
"latitude":34.762506,
"feature":"火力发电站",
"name":"甘肃甘谷发电厂",
"location":"甘肃省天水市甘谷县"
},
{
"id":"p087",
"longitude":103.720796,
"latitude":36.11338,
"feature":"火力发电站",
"name":"甘肃八0三发电厂",
"location":"甘肃省兰州市"
},
{
"id":"p088",
"longitude":102.882886,
"latitude":36.526219,
"feature":"火力发电站",
"name":"甘肃连城发电厂",
"location":"甘肃省兰州市永登县"
},
{
"id":"p089",
"longitude":103.624716,
"latitude":36.134673,
"feature":"火力发电站",
"name":"甘肃兰西热电有限公司",
"location":"甘肃省兰州市安宁区"
},
{
"id":"p090",
"longitude":108.396373,
"latitude":22.817309,
"feature":"火力发电站",
"name":"广西桂冠电力股份公司",
"location":"广西壮族自治区南宁市"
},
{
"id":"p091",
"longitude":108.325934,
"latitude":22.82886,
"feature":"水力发电站",
"name":"桂冠大化水力发电总厂",
"location":"广西壮族自治区南宁市"
},
{
"id":"p092",
"longitude":109.26404,
"latitude":22.660067,
"feature":"水力发电站",
"name":"广西岩滩水电厂",
"location":"广西壮族自治区南宁市"
},
{
"id":"p093",
"longitude":113.248965,
"latitude":22.949432,
"feature":"水力发电站",
"name":"陈村水力发电厂",
"location":"广州佛山市"
},
{
"id":"p094",
"longitude":114.536317,
"latitude":38.751441,
"feature":"水力发电站",
"name":"王快水电厂",
"location":"河北省保定市"
},
{
"id":"p095",
"longitude":110.203713,
"latitude":29.413565,
"feature":"水力发电站",
"name":"张家界水电开发公司",
"location":"湖南张家界"
},
{
"id":"p096",
"longitude":110.530107,
"latitude":29.127579,
"feature":"水力发电站",
"name":"贺龙水电厂",
"location":"湖南张家界"
},
{
"id":"p097",
"longitude":110.525271,
"latitude":29.128171,
"feature":"水力发电站",
"name":"鱼潭水电厂",
"location":"湖南张家界"
},
{
"id":"p098",
"longitude":108.22165,
"latitude":33.085699,
"feature":"水力发电站",
"name":"陕西石泉水力发电厂",
"location":"陕西省安康市"
},
{
"id":"p099",
"longitude":109.014553,
"latitude":32.676072,
"feature":"水力发电站",
"name":"安康水力发电厂",
"location":"陕西省安康市"
},
{
"id":"p100",
"longitude":105.252827,
"latitude":32.755743,
"feature":"水力发电站",
"name":"甘肃碧口水电厂 ",
"location":"甘肃省陇南市"
},
{
"id":"p101",
"longitude":104.972935,
"latitude":33.470417,
"feature":"水力发电站",
"name":"百龙滩电厂",
"location":"甘肃省陇南市"
},
{
"id":"p102",
"longitude":116.315723,
"latitude":39.939596,
"feature":"火力发电站",
"name":"中国华电工程(集团)有限公司",
"location":"北京市"
},
{
"id":"p103",
"longitude":114.65271,
"latitude":37.887937,
"feature":"火力发电站",
"name":"河北热电有限责任公司",
"location":"河北石家庄"
},
{
"id":"p104",
"longitude":110.084379,
"latitude":40.586029,
"feature":"火力发电站",
"name":"包头东华热电有限公司",
"location":"\r\n内蒙古自治区包头市东河区"
},
{
"id":"p105",
"longitude":106.74312,
"latitude":39.486624,
"feature":"火力发电站",
"name":"内蒙古华电乌达热电有限公司",
"location":"内蒙古自治区乌海市"
},
{
"id":"p106",
"longitude":116.954196,
"latitude":35.330286,
"feature":"火力发电站",
"name":"邹县发电厂",
"location":"山东济宁"
},
{
"id":"p107",
"longitude":117.673579,
"latitude":36.262745,
"feature":"火力发电站",
"name":"莱城发电厂",
"location":"山东莱芜"
},
{
"id":"p108",
"longitude":117.577828,
"latitude":34.819312,
"feature":"火力发电站",
"name":"十里泉发电厂",
"location":"山东枣庄"
},
{
"id":"p109",
"longitude":120.341797,
"latitude":36.114974,
"feature":"火力发电站",
"name":"华电青岛发电有限公司",
"location":"山东青岛"
},
{
"id":"p110",
"longitude":120.341797,
"latitude":36.114974,
"feature":"火力发电站",
"name":"华电淄博热电有限公司",
"location":"山东淄博"
},
{
"id":"p111",
"longitude":117.421079,
"latitude":36.73829,
"feature":"火力发电站",
"name":"华电章丘发电有限公司",
"location":"山东济南"
},
{
"id":"p112",
"longitude":117.142352,
"latitude":35.076076,
"feature":"火力发电站",
"name":"华电滕州新源热电有限公司",
"location":"山东枣庄"
},
{
"id":"p113",
"longitude":106.297129,
"latitude":30.361604,
"feature":"火力发电站",
"name":"四川广安发电有限责任公司",
"location":"四川广安"
},
{
"id":"p114",
"longitude":117.652672,
"latitude":30.765667,
"feature":"火力发电站",
"name":"神皖九华发电有限公司",
"location":"安徽池州"
},
{
"id":"p115",
"longitude":105.715943,
"latitude":37.595273,
"feature":"火力发电站",
"name":"宁夏中宁发电有限公司",
"location":"宁夏回族自治区中卫市"
},
{
"id":"p116",
"longitude":129.660038,
"latitude":44.655574,
"feature":"火力发电站",
"name":"牡丹江第二发电厂",
"location":"黑龙江牡丹江"
},
{
"id":"p117",
"longitude":126.683614,
"latitude":45.972683,
"feature":"火力发电站",
"name":"哈尔滨第三发电厂",
"location":"黑龙江哈尔滨市"
},
{
"id":"p118",
"longitude":126.683614,
"latitude":45.712258,
"feature":"火力发电站",
"name":"哈尔滨热电有限责任公司",
"location":"黑龙江哈尔滨市"
},
{
"id":"p119",
"longitude":126.65642,
"latitude":45.749733,
"feature":"火力发电站",
"name":"中国华电集团哈尔滨发电有限公司",
"location":"黑龙江哈尔滨市"
},
{
"id":"p120",
"longitude":123.818483,
"latitude":42.345868,
"feature":"火力发电站",
"name":"铁岭发电厂",
"location":"辽宁省铁岭市"
},
{
"id":"p121",
"longitude":116.994488,
"latitude":33.807877,
"feature":"火力发电站",
"name":"安徽华电宿州发电有限公司",
"location":"安徽宿州"
},
{
"id":"p122",
"longitude":119.485774,
"latitude":32.431096,
"feature":"火力发电站",
"name":"江苏华电扬州发电有限公司",
"location":"江苏扬州"
},
{
"id":"p123",
"longitude":120.045727,
"latitude":31.740676,
"feature":"火力发电站",
"name":"江苏华电戚墅堰发电有限公司",
"location":"江苏常州"
},
{
"id":"p124",
"longitude":120.152444,
"latitude":30.36495,
"feature":"火力发电站",
"name":"杭州半山发电有限公司",
"location":"浙江杭州"
},
{
"id":"p125",
"longitude":117.472471,
"latitude":27.38626,
"feature":"火力发电站",
"name":"福建华电邵武发电有限公司",
"location":"福建南平"
},
{
"id":"p126",
"longitude":117.032342,
"latitude":25.084685,
"feature":"水力发电站",
"name":"福建棉花滩水电开发有限公司",
"location":"福建龙岩"
},
{
"id":"p127",
"longitude":119.549109,
"latitude":26.645004,
"feature":"水力发电站",
"name":"闽东水电开发有限公司",
"location":"福建省宁德市"
},
{
"id":"p128",
"longitude":117.164709,
"latitude":25.279141,
"feature":"火力发电站",
"name":"福建龙岩发电有限责任公司",
"location":"福建龙岩"
},
{
"id":"p129",
"longitude":117.073102,
"latitude":25.414125,
"feature":"水力发电站",
"name":"万安溪水力发电有限责任公司",
"location":"福建龙岩"
},
{
"id":"p130",
"longitude":115.193222,
"latitude":30.209733,
"feature":"火力发电站",
"name":"\r\n湖北华电电力工程有限公司",
"location":"湖北黄冈"
},
{
"id":"p131",
"longitude":115.190583,
"latitude":30.209964,
"feature":"火力发电站",
"name":"湖北西塞山发电有限公司",
"location":"湖北黄石"
},
{
"id":"p132",
"longitude":112.179858,
"latitude":32.034311,
"feature":"火力发电站",
"name":"湖北华电襄樊发电有限公司",
"location":"湖北省襄阳市"
},
{
"id":"p133",
"longitude":112.809979,
"latitude":28.488026,
"feature":"火力发电站",
"name":"湖南华电长沙发电有限公司",
"location":"湖南省长沙市"
},
{
"id":"p134",
"longitude":113.505184,
"latitude":35.334864,
"feature":"火力发电站",
"name":"华电新乡发电有限公司",
"location":"河南省新乡市"
},
{
"id":"p135",
"longitude":104.680212,
"latitude":28.274337,
"feature":"火力发电站",
"name":"四川宜宾发电有限责任公司",
"location":"四川宜宾"
},
{
"id":"p136",
"longitude":104.083965,
"latitude":30.656179,
"feature":"火力发电站",
"name":"四川黄桷庄发电有限责任公司",
"location":"四川成都"
},
{
"id":"p137",
"longitude":104.127516,
"latitude":30.675774,
"feature":"火力发电站",
"name":"成都三源热力有限责任公司",
"location":"四川成都"
},
{
"id":"p138",
"longitude":102.986953,
"latitude":31.502046,
"feature":"水力发电站",
"name":"杂谷脑水电开发有限责任公司",
"location":"四川省阿坝藏族羌族自治州"
},
{
"id":"p139",
"longitude":105.520279,
"latitude":28.887833,
"feature":"火力发电站",
"name":"四川华电高坝发电有限公司",
"location":"四川泸州"
},
{
"id":"p140",
"longitude":104.680212,
"latitude":28.274337,
"feature":"火力发电站",
"name":"四川华电珙县发电有限公司",
"location":"四川宜宾"
},
{
"id":"p141",
"longitude":106.077017,
"latitude":31.759852,
"feature":"水力发电站",
"name":"\r\n四川华邦水电开发有限公司",
"location":"四川广元"
},
{
"id":"p142",
"longitude":106.629054,
"latitude":30.462023,
"feature":"水力发电站",
"name":"西溪河水电开发有限公司",
"location":"四川广安"
},
{
"id":"p143",
"longitude":109.802665,
"latitude":34.986035,
"feature":"火力发电站",
"name":"陕西蒲城发电有限责任公司",
"location":"陕西省渭南市"
},
{
"id":"p144",
"longitude":75.876246,
"latitude":39.386545,
"feature":"水力发电站",
"name":"\r\n疏附县水力发电公司",
"location":"新疆喀什"
},
{
"id":"p145",
"longitude":93.456024,
"latitude":42.900182,
"feature":"火力发电站",
"name":"新疆华电哈密发电有限责任公司",
"location":"新疆哈密"
},
{
"id":"p146",
"longitude":87.658233,
"latitude":43.860805,
"feature":"火力发电站",
"name":"新疆华电苇湖梁发电有限责任公司",
"location":"新疆乌鲁木齐"
},
{
"id":"p147",
"longitude":87.63107,
"latitude":43.738362,
"feature":"火力发电站",
"name":"新疆华电红雁池发电有限责任公司",
"location":"新疆乌鲁木齐"
},
{
"id":"p148",
"longitude":87.322954,
"latitude":44.001522,
"feature":"火力发电站",
"name":"新疆华电昌吉热电有限责任公司",
"location":"新疆昌吉回族自治州"
},
{
"id":"p149",
"longitude":88.625501,
"latitude":42.738855,
"feature":"火力发电站",
"name":"新疆华电吐鲁番发电有限责任公司",
"location":"新疆吐鲁番地区"
},
{
"id":"p150",
"longitude":101.726481,
"latitude":36.904729,
"feature":"火力发电站",
"name":"青海华电大通发电有限公司",
"location":"新疆吐鲁番地区"
},
{
"id":"p151",
"longitude":103.198588,
"latitude":23.962825,
"feature":"火力发电站",
"name":"云南华电巡检司发电有限公司",
"location":"云南红河哈尼族彝族自治州"
},
{
"id":"p152",
"longitude":102.729426,
"latitude":25.044893,
"feature":"水力发电站",
"name":"云南华电怒江水电开发有限公司",
"location":"云南昆明"
},
{
"id":"p153",
"longitude":107.573443,
"latitude":27.843871,
"feature":"水力发电站",
"name":"贵州乌江水电开发有限公司",
"location":"贵州遵义"
},
{
"id":"p154",
"longitude":105.579244,
"latitude":27.113486,
"feature":"火力发电站",
"name":"贵州大方发电有限公司",
"location":"贵州毕节地区"
},
{
"id":"p155",
"longitude":109.809575,
"latitude":41.613718,
"feature":"风力发电站",
"name":"华能包头风力发电有限公司",
"location":"内蒙古自治区包头市"
},
{
"id":"p156",
"longitude":110.084379,
"latitude":40.586029,
"feature":"火力发电站",
"name":"包头东华热电公司",
"location":"内蒙古自治区包头市"
},
{
"id":"p157",
"longitude":120.229069,
"latitude":36.052308,
"feature":"火力发电站",
"name":"山东黄岛发电厂",
"location":"山东青岛"
},
{
"id":"p158",
"longitude":117.398638,
"latitude":26.009481,
"feature":"火力发电站",
"name":"福建永安火电厂",
"location":"福建省三明市永安市"
},
{
"id":"p159",
"longitude":117.416581,
"latitude":25.286503,
"feature":"火力发电站",
"name":"福建华电漳平电厂",
"location":"福建省龙岩市"
},
{
"id":"p160",
"longitude":117.540559,
"latitude":25.007245,
"feature":"水力发电站",
"name":"福建华安水力发电厂",
"location":"福建省漳州市"
},
{
"id":"p161",
"longitude":114.44697,
"latitude":30.636875,
"feature":"火力发电站",
"name":"湖北华电青山热电有限公司",
"location":"湖北武汉"
},
{
"id":"p162",
"longitude":114.323103,
"latitude":30.582982,
"feature":"火力发电站",
"name":"湖北华电武昌热电厂",
"location":"湖北武汉"
},
{
"id":"p163",
"longitude":104.083965,
"latitude":30.656179,
"feature":"火力发电站",
"name":"华电四川发电有限公司",
"location":"四川成都"
},
{
"id":"p164",
"longitude":104.561311,
"latitude":28.709413,
"feature":"火力发电站",
"name":"宜宾发电总厂",
"location":"四川宜宾"
},
{
"id":"p165",
"longitude":101.601755,
"latitude":26.597243,
"feature":"火力发电站",
"name":"攀枝花发电公司",
"location":"四川攀枝花"
},
{
"id":"p166",
"longitude":103.824166,
"latitude":29.415929,
"feature":"火力发电站",
"name":"五通桥发电厂",
"location":"四川乐山市"
},
{
"id":"p167",
"longitude":103.158369,
"latitude":26.515253,
"feature":"火力发电站",
"name":"云南以礼河发电厂",
"location":"云南曲靖"
},
{
"id":"p168",
"longitude":106.276791,
"latitude":26.833942,
"feature":"火力发电站",
"name":"贵州清镇发电厂",
"location":"贵州贵阳"
},
{
"id":"p169",
"longitude":109.023514,
"latitude":27.296368,
"feature":"火力发电站",
"name":"大龙发电有限公司",
"location":"贵州铜仁"
},
{
"id":"p170",
"longitude":109.772864,
"latitude":23.115616,
"feature":"火力发电站",
"name":"贵港发电有限公司",
"location":"广西壮族自治区贵港市"
},
{
"id":"p171",
"longitude":122.177607,
"latitude":43.679601,
"feature":"火力发电站",
"name":"通辽发电总厂",
"location":"内蒙古自治区通辽市"
},
{
"id":"p172",
"longitude":120.760282,
"latitude":41.808177,
"feature":"火力发电站",
"name":"北票发电厂",
"location":"辽宁朝阳市"
},
{
"id":"p173",
"longitude":121.598033,
"latitude":38.911108,
"feature":"火力发电站",
"name":"大连大发热电有限公司",
"location":"辽宁大连"
},
{
"id":"p174",
"longitude":121.67516,
"latitude":42.005057,
"feature":"火力发电站",
"name":"阜新发电厂",
"location":"辽宁阜新"
},
{
"id":"p175",
"longitude":123.899524,
"latitude":41.871098,
"feature":"火力发电站",
"name":"抚顺发电厂",
"location":"辽宁抚顺"
},
{
"id":"p176",
"longitude":118.990479,
"latitude":42.280414,
"feature":"火力发电站",
"name":"赤峰热电厂",
"location":"内蒙古赤峰市"
},
{
"id":"p177",
"longitude":113.50829,
"latitude":34.705811,
"feature":"火力发电站",
"name":"郑州热电厂",
"location":"河南郑州"
},
{
"id":"p178",
"longitude":112.375304,
"latitude":32.528832,
"feature":"火力发电站",
"name":"南阳电厂",
"location":"河南南阳"
},
{
"id":"p179",
"longitude":113.940227,
"latitude":35.40392,
"feature":"火力发电站",
"name":"新乡火电厂",
"location":"河南新乡"
},
{
"id":"p180",
"longitude":113.350345,
"latitude":33.739871,
"feature":"火力发电站",
"name":"平顶山鸿翔热电公司",
"location":"河南平顶山"
},
{
"id":"p181",
"longitude":114.45218,
"latitude":34.80738,
"feature":"火力发电站",
"name":"开封火电厂",
"location":"河南开封"
},
{
"id":"p182",
"longitude":111.797472,
"latitude":28.511431,
"feature":"水力发电站",
"name":"马迹塘水力发电厂",
"location":"湖南益阳"
},
{
"id":"p183",
"longitude":113.240648,
"latitude":25.951571,
"feature":"火力发电站",
"name":"鲤鱼江电厂",
"location":"湖南省郴州市"
},
{
"id":"p184",
"longitude":118.866928,
"latitude":33.31793,
"feature":"火力发电站",
"name":"洪泽热电有限公司",
"location":"江苏淮安"
},
{
"id":"p185",
"longitude":118.361155,
"latitude":31.456718,
"feature":"火力发电站",
"name":"芜湖发电厂",
"location":"安徽省芜湖市"
},
{
"id":"p186",
"longitude":106.006553,
"latitude":37.89206,
"feature":"水力发电站",
"name":"青铜峡水电厂",
"location":"宁夏回族自治区吴忠市"
},
{
"id":"p187",
"longitude":103.721265,
"latitude":36.097051,
"feature":"水力发电站",
"name":"八盘峡水电厂",
"location":"甘肃兰州"
},
{
"id":"p188",
"longitude":103.786161,
"latitude":36.080372,
"feature":"水力发电站",
"name":"盐锅峡水电厂",
"location":"甘肃兰州"
},
{
"id":"p189",
"longitude":103.829147,
"latitude":36.069344,
"feature":"水力发电站",
"name":"洪江水电站",
"location":"甘肃兰州"
},
{
"id":"p190",
"longitude":109.504218,
"latitude":28.833137,
"feature":"水力发电站",
"name":"碗米坡水电站",
"location":"湖南湘西土家族苗族自治州"
},
{
"id":"p191",
"longitude":112.707226,
"latitude":26.888644,
"feature":"水力发电站",
"name":"白渔潭水电站",
"location":"湖南衡阳"
},
{
"id":"p192",
"longitude":111.633107,
"latitude":26.203343,
"feature":"水力发电站",
"name":"南津度水电站",
"location":"湖南永州"
},
{
"id":"p193",
"longitude":110.976948,
"latitude":28.803613,
"feature":"水力发电站",
"name":"五强溪水力发电厂",
"location":"湖南怀化"
},
{
"id":"p194",
"longitude":121.469029,
"latitude":31.06796,
"feature":"火力发电站",
"name":"闵行发电厂",
"location":"上海"
},
{
"id":"p195",
"longitude":121.553195,
"latitude":31.280569,
"feature":"火力发电站",
"name":"杨树浦发电厂",
"location":"上海"
},
{
"id":"p196",
"longitude":121.46902,
"latitude":31.06799,
"feature":"火力发电站",
"name":"吴泾热电厂",
"location":"上海"
},
{
"id":"p197",
"longitude":113.09683,
"latitude":36.324132,
"feature":"火力发电站",
"name":"漳泽发电厂",
"location":"山西漳泽"
},
{
"id":"p198",
"longitude":110.670762,
"latitude":35.62223,
"feature":"火力发电站",
"name":"河津发电厂",
"location":"陕西渭南"
},
{
"id":"p199",
"longitude":106.519774,
"latitude":29.515633,
"feature":"火力发电站",
"name":"重庆九龙电厂",
"location":"重庆"
},
{
"id":"p200",
"longitude":108.471494,
"latitude":31.269764,
"feature":"火力发电站",
"name":"白鹤发电厂",
"location":"重庆"
},
{
"id":"p201",
"longitude":107.086038,
"latitude":29.847416,
"feature":"水力发电站",
"name":"狮子滩水力发电总厂",
"location":"重庆"
},
{
"id":"p202",
"longitude":117.772647,
"latitude":40.955596,
"feature":"火力发电站",
"name":"滦河发电厂",
"location":"河北承德"
},
{
"id":"p203",
"longitude":117.365238,
"latitude":39.224548,
"feature":"火力发电站",
"name":"津能热电有限公司",
"location":"天津"
},
{
"id":"p204",
"longitude":117.198192,
"latitude":38.966845,
"feature":"火力发电站",
"name":"陈塘热电有限公司",
"location":"天津"
},
{
"id":"p205",
"longitude":111.130598,
"latitude":38.064277,
"feature":"火力发电站",
"name":"霍州发电厂",
"location":"山西吕梁"
},
{
"id":"p206",
"longitude":112.433019,
"latitude":37.837033,
"feature":"火力发电站",
"name":"西山热电有限责任公司",
"location":"山西太原"
},
{
"id":"p207",
"longitude":126.603257,
"latitude":43.800537,
"feature":"火力发电站",
"name":"吉林江南热电有限公司",
"location":"吉林省吉林市"
},
{
"id":"p208",
"longitude":119.590964,
"latitude":32.176981,
"feature":"火力发电站",
"name":"谏壁发电厂",
"location":"江苏镇江"
},
{
"id":"p209",
"longitude":120.668383,
"latitude":27.998434,
"feature":"火力发电站",
"name":"温州东屿发电厂",
"location":"浙江温州"
},
{
"id":"p210",
"longitude":114.80892,
"latitude":26.455207,
"feature":"水力发电站",
"name":"万安水力发电厂",
"location":"江西吉安"
},
{
"id":"p220",
"longitude":116.040317,
"latitude":29.75158,
"feature":"火力发电站",
"name":"九江发电厂",
"location":"江西九江"
},
{
"id":"p221",
"longitude":111.490876,
"latitude":30.142079,
"feature":"火力发电站",
"name":" 松木坪电厂",
"location":"湖北宜昌"
},
{
"id":"p222",
"longitude":107.067947,
"latitude":30.899129,
"feature":"火力发电站",
"name":"华蓥山发电厂",
"location":"四川省达州市"
},
{
"id":"p223",
"longitude":106.390291,
"latitude":39.045273,
"feature":"火力发电站",
"name":"大武口发电厂",
"location":"宁夏石嘴山"
},
{
"id":"p224",
"longitude":107.971386,
"latitude":26.588841,
"feature":"火力发电站",
"name":"凯里发电厂",
"location":"贵州黔南布依族苗族自治州"
},
{
"id":"p225",
"longitude":110.193864,
"latitude":24.141529,
"feature":"火力发电站",
"name":"大寨水力发电厂",
"location":"广西来宾"
},
{
"id":"p226",
"longitude":103.621849,
"latitude":23.892683,
"feature":"火力发电站",
"name":"小龙潭发电厂",
"location":"云南省红河哈尼族彝族自治州蒙自市 "
},
{
"id":"p227",
"longitude":113.308179,
"latitude":40.033708,
"feature":"火力发电站",
"name":"大同第二发电厂",
"location":"山西省大同市"
},
{
"id":"p228",
"longitude":112.246303,
"latitude":31.034402,
"feature":"火力发电站",
"name":"国电长源荆门热电厂",
"location":"湖北荆门"
},
{
"id":"p229",
"longitude":112.319275,
"latitude":30.299585,
"feature":"火力发电站",
"name":"国电长源沙市热电厂",
"location":"湖北宜昌"
},
{
"id":"p230",
"longitude":87.604286,
"latitude":43.83791,
"feature":"风力发电站",
"name":"新疆风力发电厂",
"location":"新疆乌鲁木齐"
},
{
"id":"p231",
"longitude":123.271812,
"latitude":41.778002,
"feature":"火力发电站",
"name":"沈阳热电",
"location":"辽宁沈阳"
},
{
"id":"p232",
"longitude":117.052748,
"latitude":39.158381,
"feature":"火力发电站",
"name":"华能杨柳青电厂",
"location":"天津市"
},
{
"id":"p233",
"longitude":106.679187,
"latitude":28.610869,
"feature":"火力发电站",
"name":"松藻煤电公司",
"location":"重庆市"
},
{
"id":"p234",
"longitude":106.792932,
"latitude":35.505562,
"feature":"火力发电站",
"name":"平凉发电有限责任公司",
"location":"甘肃省平凉市"
},
{
"id":"p235",
"longitude":116.71905,
"latitude":23.362062,
"feature":"火力发电站",
"name":"\r\n松山发电厂",
"location":"广东省汕头市"
},
{
"id":"p236",
"longitude":120.829556,
"latitude":33.127729,
"feature":"风力发电站",
"name":"龙源海上风力发电公司",
"location":"江苏省盐城市"
},
{
"id":"p237",
"longitude":120.456008,
"latitude":33.202347,
"feature":"风力发电站",
"name":"\r\n中电大丰风力发电公司",
"location":"江苏省盐城市"
},
{
"id":"p238",
"longitude":87.866918,
"latitude":43.578721,
"feature":"风力发电站",
"name":"达坂城风力发电厂",
"location":"新疆乌鲁木齐"
},
{
"id":"p239",
"longitude":120.020842,
"latitude":35.887063,
"feature":"风力发电站",
"name":"\r\n大唐胶南风力发电有限公司",
"location":"山东青岛"
},
{
"id":"p240",
"longitude":121.730343,
"latitude":31.031852,
"feature":"风力发电站",
"name":"爱郎风力发电有限公司",
"location":"上海市"
},
{
"id":"p241",
"longitude":119.65128,
"latitude":35.893989,
"feature":"风力发电站",
"name":"国华诸城风力发电有限公司",
"location":"山东潍坊"
},
{
"id":"p242",
"longitude":117.398473,
"latitude":35.346837,
"feature":"风力发电站",
"name":"大唐邹城风力发电有限公司",
"location":"山东济宁"
},
{
"id":"p243",
"longitude":119.772949,
"latitude":49.233016,
"feature":"风力发电站",
"name":"\r\n华能呼伦贝尔风力发电有限公司",
"location":"内蒙古自治区呼伦贝尔市"
},
{
"id":"p244",
"longitude":123.961188,
"latitude":44.215422,
"feature":"风力发电站",
"name":"龙源长岭风力发电有限公司",
"location":"吉林省松原市"
},
{
"id":"p245",
"longitude":110.327851,
"latitude":20.038561,
"feature":"风力发电站",
"name":"海南龙源风力发电有限公司",
"location":"海南海口"
},
{
"id":"p246",
"longitude":114.447503,
"latitude":31.53588,
"feature":"风力发电站",
"name":"湖北仙居顶风力发电有限公司",
"location":"湖北孝感"
},
{
"id":"p247",
"longitude":112.69884,
"latitude":37.766305,
"feature":"风力发电站",
"name":"晋奇风力发电有限公司",
"location":"山西省晋中市"
},
{
"id":"p248",
"longitude":112.497957,
"latitude":39.304397,
"feature":"风力发电站",
"name":"大唐新能源朔州风力发电公司",
"location":"山西省朔州市"
},
{
"id":"p249",
"longitude":112.090949,
"latitude":39.041082,
"feature":"风力发电站",
"name":"华能神池风力发电有限公司",
"location":"山西省忻州市"
},
{
"id":"p250",
"longitude":112.572716,
"latitude":37.858663,
"feature":"风力发电站",
"name":"太原诚达集团风力发电有限公司",
"location":"山西省太原市"
},
{
"id":"p251",
"longitude":106.627533,
"latitude":26.647491,
"feature":"风力发电站",
"name":"华能威宁风力发电有限公司",
"location":"贵州贵阳"
},
{
"id":"p252",
"longitude":116.190544,
"latitude":29.55656,
"feature":"风力发电站",
"name":"国电湖口风力发电有限公司",
"location":"江西九江"
},
{
"id":"p253",
"longitude":120.157415,
"latitude":30.285418,
"feature":"风力发电站",
"name":"浙江风力发电发展公司",
"location":"浙江省杭州市"
},
{
"id":"p254",
"longitude":121.065561,
"latitude":28.954104,
"feature":"风力发电站",
"name":"浙江金力风力发电设备有限公司",
"location":"浙江省台州市"
},
{
"id":"p255",
"longitude":119.912975,
"latitude":30.778469,
"feature":"风力发电站",
"name":"\r\n华电福新和平风力发电有限公司",
"location":"浙江湖州"
},
{
"id":"p256",
"longitude":120.834094,
"latitude":29.573323,
"feature":"风力发电站",
"name":"\r\n中节能风力发电(浙江)有限公司",
"location":"浙江绍兴"
},
{
"id":"p257",
"longitude":122.239405,
"latitude":43.663646,
"feature":"风力发电站",
"name":"华能通辽风力发电有限公司",
"location":"内蒙古通辽市"
},
{
"id":"p258",
"longitude":118.900425,
"latitude":42.258267,
"feature":"风力发电站",
"name":"龙源蒙东风力发电公司",
"location":"内蒙古自治区赤峰市"
},
{
"id":"p259",
"longitude":128.674278,
"latitude":44.645479,
"feature":"风力发电站",
"name":"海林中电红旗风力发电有限公司",
"location":"黑龙江牡丹江"
},
{
"id":"p260",
"longitude":132.020005,
"latitude":47.250222,
"feature":"风力发电站",
"name":"\r\n黑龙江中宇富锦风力发电有限公司",
"location":"黑龙江佳木斯"
},
{
"id":"p261",
"longitude":125.358336,
"latitude":41.268378,
"feature":"风力发电站",
"name":"航天龙源风力发电有限公司",
"location":"辽宁本溪"
},
{
"id":"p262",
"longitude":122.192093,
"latitude":40.616995,
"feature":"风力发电站",
"name":"\r\n红叶风力发电",
"location":"辽宁营口"
},
{
"id":"p263",
"longitude":120.461474,
"latitude":41.566709,
"feature":"风力发电站",
"name":"龙源风力发电公司",
"location":"辽宁省朝阳市"
},
{
"id":"p264",
"longitude":114.539072,
"latitude":41.140498,
"feature":"风力发电站",
"name":"\r\n中节能风力发电(张北)有限公司",
"location":"河北省张家口市"
},
{
"id":"p265",
"longitude":117.238273,
"latitude":38.049781,
"feature":"风力发电站",
"name":"\r\n盐山宏润风力发电有限公司",
"location":"河北沧州"
},
{
"id":"p266",
"longitude":120.667771,
"latitude":37.326655,
"feature":"风力发电站",
"name":"华能烟台风力发电有限公司",
"location":"山东省烟台市"
},
{
"id":"p267",
"longitude":117.025354,
"latitude":36.66887,
"feature":"风力发电站",
"name":"山东龙源风力发电有限公司",
"location":"山东省济南市"
},
{
"id":"p268",
"longitude":118.768121,
"latitude":34.988448,
"feature":"风力发电站",
"name":"龙源临沂风力发电有限公司",
"location":"山东省临沂市"
},
{
"id":"p269",
"longitude":112.445434,
"latitude":33.485765,
"feature":"风力发电站",
"name":"南召协合风力发电有限公司",
"location":"河南南阳"
},
{
"id":"p270",
"longitude":108.892215,
"latitude":34.198712,
"feature":"风力发电站",
"name":"龙源陕西风力发电有限公司",
"location":"陕西西安"
},
{
"id":"p271",
"longitude":86.582781,
"latitude":48.005336,
"feature":"风力发电站",
"name":"龙源哈巴河风力发电有限公司",
"location":"新疆阿勒泰"
},
{
"id":"p272",
"longitude":101.55241,
"latitude":25.326572,
"feature":"风力发电站",
"name":"中广核牟定风力发电有限公司",
"location":"云南楚雄彝族自治州"
},
{
"id":"p273",
"longitude":111.305214,
"latitude":24.814143,
"feature":"风力发电站",
"name":"华能富川风力发电有限公司",
"location":"广西壮族自治区贺州市"
},
{
"id":"p274",
"longitude":109.865449,
"latitude":22.75827,
"feature":"风力发电站",
"name":"中广核兴业风力发电有限公司",
"location":"广西壮族自治区玉林市"
},
{
"id":"p275",
"longitude":116.816186,
"latitude":31.761071,
"feature":"风力发电站",
"name":"\r\n肥西协合风力发电有限公司\r\n\r\n肥西协合风力发电有限公司",
"location":"安徽合肥"
},
{
"id":"p276",
"longitude":119.103174,
"latitude":32.721397,
"feature":"风力发电站",
"name":"\r\n天长协合风力发电有限公司",
"location":"安徽滁州"
},
{
"id":"p277",
"longitude":118.132357,
"latitude":31.749787,
"feature":"风力发电站",
"name":"国成顺风风力发电有限公司",
"location":"安徽马鞍山"
},
{
"id":"p278",
"longitude":116.786669,
"latitude":32.703955,
"feature":"风力发电站",
"name":"安徽六和同心风能发电有限公司",
"location":"安徽淮南"
},
{
"id":"p279",
"longitude":113.376558,
"latitude":33.625284,
"feature":"风力发电站",
"name":"叶县国博大石崖风力发电有限公司",
"location":"河南平顶山"
},
{
"id":"p280",
"longitude":97.046205,
"latitude":40.291916,
"feature":"风力发电站",
"name":"甘肃新安风力发电有限公司",
"location":"甘肃酒泉"
},
{
"id":"p281",
"longitude":119.099845,
"latitude":25.460398,
"feature":"风力发电站",
"name":"福建龙源风力发电公司",
"location":"福建莆田"
},
{
"id":"p282",
"longitude":119.787029,
"latitude":25.500851,
"feature":"风力发电站",
"name":"龙源平潭风力发电有限公司",
"location":"福建省福州市"
},
{
"id":"p283",
"longitude":114.495523,
"latitude":36.570747,
"feature":"火力发电站",
"name":"邯峰电厂",
"location":"河北邯郸"
},
{
"id":"p284",
"longitude":112.785829,
"latitude":34.920493,
"feature":"火力发电站",
"name":"孟州市电厂",
"location":"河南省焦作市"
},
{
"id":"p285",
"longitude":118.511248,
"latitude":36.726695,
"feature":"火力发电站",
"name":"青州益能热电有限责任公司",
"location":"山东青州"
},
{
"id":"p286",
"longitude":109.703172,
"latitude":38.038788,
"feature":"水力发电站",
"name":"榆林市响水水电站股份有限公司",
"location":"陕西榆林"
},
{
"id":"p287",
"longitude":113.204548,
"latitude":35.037674,
"feature":"火力发电站",
"name":"西滑封热电有限责任公司",
"location":"河南佳作"
},
{
"id":"p288",
"longitude":131.861224,
"latitude":47.294461,
"feature":"火力发电站",
"name":"绥滨县盛蕴热电有限责任公司",
"location":"黑龙江鹤岗"
},
{
"id":"p289",
"longitude":113.169775,
"latitude":29.441649,
"feature":"火力发电站",
"name":"华能岳阳电厂",
"location":"湖南岳阳"
},
{
"id":"p290",
"longitude":124.484671,
"latitude":45.323371,
"feature":"火力发电站",
"name":"长山热电厂",
"location":"吉林松原"
},
{
"id":"p291",
"longitude":121.264013,
"latitude":31.585968,
"feature":"火力发电站",
"name":"太仓发电厂",
"location":"江苏省苏州市"
},
{
"id":"p292",
"longitude":118.969279,
"latitude":33.599789,
"feature":"火力发电站",
"name":"淮阴发电厂",
"location":"江苏淮安"
},
{
"id":"p293",
"longitude":114.178127,
"latitude":26.568875,
"feature":"火力发电站",
"name":"井冈山发电有限责任公司",
"location":"江西吉安"
},
{
"id":"p294",
"longitude":121.64545,
"latitude":38.924152,
"feature":"火力发电站",
"name":"大连电厂",
"location":"辽宁大连"
},
{
"id":"p295",
"longitude":122.527292,
"latitude":40.622304,
"feature":"火力发电站",
"name":"营口电厂",
"location":"辽宁营口"
},
{
"id":"p296",
"longitude":119.760213,
"latitude":48.54305,
"feature":"火力发电站",
"name":"伊敏煤电公司",
"location":"内蒙古自治区呼伦贝尔市"
},
{
"id":"p297",
"longitude":117.858649,
"latitude":36.483421,
"feature":"火力发电站",
"name":"白杨河发电厂",
"location":"山东淄博"
},
{
"id":"p298",
"longitude":118.257108,
"latitude":36.793518,
"feature":"火力发电站",
"name":"辛店电厂",
"location":"山东淄博"
},
{
"id":"p299",
"longitude":116.255672,
"latitude":37.448089,
"feature":"火力发电站",
"name":"德州发电厂",
"location":"山东德州"
},
{
"id":"p300",
"longitude":119.540374,
"latitude":35.3973,
"feature":"火力发电站",
"name":"日照发电厂",
"location":"山东省日照市"
},
{
"id":"p301",
"longitude":104.26277,
"latitude":30.567946,
"feature":"火力发电站",
"name":"成都热电厂",
"location":"四川成都"
},
{
"id":"p302",
"longitude":105.826151,
"latitude":30.184608,
"feature":"水力发电站",
"name":"涪江水电有限责任公司",
"location":"重庆"
},
{
"id":"p303",
"longitude":102.183116,
"latitude":30.068608,
"feature":"水力发电站",
"name":"康定水电有限责任公司",
"location":"四川甘孜藏族自治州"
},
{
"id":"p304",
"longitude":105.110541,
"latitude":31.101116,
"feature":"火力发电站",
"name":"华能明台电厂",
"location":"四川绵阳"
},
{
"id":"p305",
"longitude":102.753065,
"latitude":24.968394,
"feature":"水力发电站",
"name":"澜沧江水电有限公司",
"location":"云南昆明"
},
{
"id":"p306",
"longitude":100.244579,
"latitude":25.603583,
"feature":"水力发电站",
"name":"大理华能水电有限责任公司",
"location":"贵州黔西南布依族苗族自治州"
},
{
"id":"p307",
"longitude":117.470654,
"latitude":39.981699,
"feature":"火力发电站",
"name":"国华盘山发电有限公司",
"location":"天津"
},
{
"id":"p308",
"longitude":117.270056,
"latitude":31.92729,
"feature":"火力发电站",
"name":"合肥发电厂",
"location":"安徽合肥"
},
{
"id":"p309",
"longitude":117.03168,
"latitude":32.650419,
"feature":"火力发电站",
"name":"淮南市洛河发电厂",
"location":"安徽省淮南市"
},
{
"id":"p310",
"longitude":117.77635,
"latitude":30.889495,
"feature":"火力发电站",
"name":" 铜陵发电厂",
"location":"安徽安庆"
},
{
"id":"p311",
"longitude":103.624716,
"latitude":36.134673,
"feature":"火力发电站",
"name":"西固热电有限责任公司",
"location":"甘肃兰州"
},
{
"id":"p312",
"longitude":102.09733,
"latitude":38.387507,
"feature":"火力发电站",
"name":"永昌发电厂",
"location":"甘肃省金昌市"
},
{
"id":"p313",
"longitude":105.112722,
"latitude":34.762506,
"feature":"火力发电站",
"name":"甘谷电厂",
"location":"甘肃省天水市"
},
{
"id":"p314",
"longitude":108.396592,
"latitude":22.818661,
"feature":"水力发电站",
"name":"平班水电开发有限公司",
"location":"广西南宁"
},
{
"id":"p315",
"longitude":108.310722,
"latitude":22.860984,
"feature":"水力发电站",
"name":"岩滩水电厂",
"location":"广西南宁"
},
{
"id":"p316",
"longitude":114.147968,
"latitude":38.047891,
"feature":"水力发电站",
"name":"微水发电厂",
"location":"河北石家庄"
},
{
"id":"p317",
"longitude":114.215126,
"latitude":36.428933,
"feature":"火力发电站",
"name":"峰峰电厂",
"location":"河北邯郸"
},
{
"id":"p318",
"longitude":115.298067,
"latitude":40.51071,
"feature":"火力发电站",
"name":"下花园发电厂",
"location":"河北张家口"
},
{
"id":"p319",
"longitude":116.560349,
"latitude":41.666472,
"feature":"水力发电站",
"name":"丰宁水电开发有限公司",
"location":"河北承德"
},
{
"id":"p320",
"longitude":130.997606,
"latitude":45.30086,
"feature":"火力发电站",
"name":"鸡西发电厂",
"location":"黑龙江省鸡西市"
},
{
"id":"p321",
"longitude":111.406779,
"latitude":29.590481,
"feature":"水力发电站",
"name":"石门水电厂",
"location":"湖南常德"
},
{
"id":"p322",
"longitude":110.203713,
"latitude":29.413565,
"feature":"水力发电站",
"name":"桑植县淋溪河水电开发有限公司",
"location":"湖南张家界"
},
{
"id":"p323",
"longitude":125.406846,
"latitude":43.892326,
"feature":"火力发电站",
"name":"长春第二热电有限责任公司",
"location":"吉林省长春市"
},
{
"id":"p324",
"longitude":125.177521,
"latitude":42.880645,
"feature":"火力发电站",
"name":"辽源热电有限责任公司",
"location":"吉林省辽源市"
},
{
"id":"p325",
"longitude":130.304575,
"latitude":42.901537,
"feature":"火力发电站",
"name":"珲春发电有限责任公司",
"location":"吉林省延边朝鲜族自治州"
},
{
"id":"p326",
"longitude":118.741863,
"latitude":32.092641,
"feature":"火力发电站",
"name":"江苏发电有限责任公司",
"location":"江苏南京"
},
{
"id":"p327",
"longitude":117.94408,
"latitude":34.353048,
"feature":"火力发电站",
"name":"徐塘发电有限公司",
"location":"江苏徐州"
},
{
"id":"p328",
"longitude":118.33833,
"latitude":34.38024,
"feature":"火力发电站",
"name":"江苏新沂热电公司",
"location":"江苏徐州"
},
{
"id":"p329",
"longitude":113.229833,
"latitude":40.075457,
"feature":"火力发电站",
"name":"大同热电有限责任公司",
"location":"山西大同"
},
{
"id":"p330",
"longitude":109.061829,
"latitude":34.295628,
"feature":"火力发电站",
"name":"灞桥热电厂",
"location":"陕西西安"
},
{
"id":"p331",
"longitude":108.630163,
"latitude":34.07091,
"feature":"火力发电站",
"name":"户县热电厂",
"location":"陕西西安"
},
{
"id":"p332",
"longitude":109.5105,
"latitude":36.610258,
"feature":"火力发电站",
"name":"延安发电厂",
"location":"陕西延安"
},
{
"id":"p333",
"longitude":108.247751,
"latitude":33.048419,
"feature":"火力发电站",
"name":"石泉水电厂",
"location":"陕西安康"
},
{
"id":"p334",
"longitude":106.155672,
"latitude":33.349753,
"feature":"火力发电站",
"name":"略阳发电厂",
"location":"陕西汉中"
},
{
"id":"p335",
"longitude":111.360283,
"latitude":40.203205,
"feature":"火力发电站",
"name":"托克托发电有限责任公司",
"location":"内蒙古自治区呼和浩特市"
},
{
"id":"p336",
"longitude":116.156732,
"latitude":39.819072,
"feature":"火力发电站",
"name":"京风热电有限责任公司",
"location":"北京"
},
{
"id":"p337",
"longitude":119.549109,
"latitude":26.645004,
"feature":"水力发电站",
"name":"闽东水电开发有限公司",
"location":"福建省宁德市"
},
{
"id":"p338",
"longitude":117.032342,
"latitude":25.084685,
"feature":"水力发电站",
"name":"棉花滩水电开发有限公司",
"location":"福建龙岩"
},
{
"id":"p339",
"longitude":117.150456,
"latitude":26.714565,
"feature":"水力发电站",
"name":"池潭水力发电厂",
"location":"福建省三明市"
},
{
"id":"p340",
"longitude":117.472471,
"latitude":27.38626,
"feature":"火力发电站",
"name":"福建华电邵武发电有限公司",
"location":"福建省南平市"
},
{
"id":"p341",
"longitude":106.279433,
"latitude":26.830401,
"feature":"火力发电站",
"name":"贵州塘寨发电公司",
"location":"贵州贵阳"
},
{
"id":"p342",
"longitude":106.769858,
"latitude":27.319662,
"feature":"水力发电站",
"name":"乌江渡发电厂",
"location":"贵州遵义"
},
{
"id":"p343",
"longitude":106.146234,
"latitude":26.583484,
"feature":"水力发电站",
"name":"引子渡水电站",
"location":"贵州毕节地区"
},
{
"id":"p344",
"longitude":114.540244,
"latitude":38.068564,
"feature":"火力发电站",
"name":"石家庄热电厂",
"location":"河北石家庄"
},
{
"id":"p345",
"longitude":113.214934,
"latitude":35.227912,
"feature":"火力发电站",
"name":"焦作市热电公司",
"location":"河南焦作"
},
{
"id":"p346",
"longitude":126.707213,
"latitude":45.712258,
"feature":"火力发电站",
"name":"哈尔滨热电厂",
"location":"黑龙江哈尔滨"
},
{
"id":"p347",
"longitude":123.600874,
"latitude":47.177021,
"feature":"火力发电站",
"name":"富拉尔基发电总厂",
"location":"黑龙江齐齐哈尔"
},
{
"id":"p348",
"longitude":111.848881,
"latitude":31.778799,
"feature":"水力发电站",
"name":"南漳金源水电发展有限责任公司",
"location":"湖北省襄阳市"
},
{
"id":"p349",
"longitude":115.190583,
"latitude":30.209964,
"feature":"火力发电站",
"name":"西塞山发电有限公司",
"location":"湖北黄石"
},
{
"id":"p350",
"longitude":120.454837,
"latitude":31.443721,
"feature":"火力发电站",
"name":"望亭发电厂",
"location":"江苏苏州"
},
{
"id":"p351",
"longitude":120.045727,
"latitude":31.740676,
"feature":"火力发电站",
"name":"戚墅堰发电有限公司",
"location":"江苏常州"
},
{
"id":"p352",
"longitude":116.995185,
"latitude":36.64003,
"feature":"火力发电站",
"name":"济南市南郊热电厂",
"location":"山东济南"
},
{
"id":"p353",
"longitude":117.013786,
"latitude":36.701252,
"feature":"火力发电站",
"name":"济南市北郊热电厂",
"location":"山东济南"
},
{
"id":"p354",
"longitude":117.421079,
"latitude":36.73829,
"feature":"火力发电站",
"name":"章丘发电有限责任公司",
"location":"山东济南"
},
{
"id":"p355",
"longitude":120.343967,
"latitude":36.112784,
"feature":"火力发电站",
"name":"青岛发电厂",
"location":"山东青岛"
},
{
"id":"p356",
"longitude":120.229079,
"latitude":36.047977,
"feature":"火力发电站",
"name":"黄岛发电厂",
"location":"山东青岛"
},
{
"id":"p357",
"longitude":118.065855,
"latitude":36.77307,
"feature":"火力发电站",
"name":"淄博山国电热电有限公司",
"location":"山东淄博"
},
{
"id":"p358",
"longitude":116.954196,
"latitude":35.330286,
"feature":"火力发电站",
"name":"邹县电厂",
"location":"山东济宁"
},
{
"id":"p359",
"longitude":117.577828,
"latitude":34.819312,
"feature":"火力发电站",
"name":"十里泉电厂",
"location":"山东枣庄"
},
{
"id":"p360",
"longitude":117.142352,
"latitude":35.076076,
"feature":"火力发电站",
"name":"山东滕州新源热电有限公司",
"location":"山东枣庄"
},
{
"id":"p361",
"longitude":117.673579,
"latitude":36.262745,
"feature":"火力发电站",
"name":"莱城发电厂",
"location":"山东莱城"
},
{
"id":"p362",
"longitude":115.544963,
"latitude":35.252714,
"feature":"火力发电站",
"name":"荷泽发电厂",
"location":"山东菏泽"
},
{
"id":"p363",
"longitude":109.802665,
"latitude":34.986035,
"feature":"火力发电站",
"name":"蒲城发电有限责任公司",
"location":"陕西渭南市"
},
{
"id":"p364",
"longitude":104.127516,
"latitude":30.675774,
"feature":"火力发电站",
"name":"成都三源热力有限责任公司",
"location":"四川成都"
},
{
"id":"p365",
"longitude":101.601755,
"latitude":26.597243,
"feature":"火力发电站",
"name":"攀枝花发电公司",
"location":"四川攀枝花市"
},
{
"id":"p366",
"longitude":106.426058,
"latitude":31.027849,
"feature":"火力发电站",
"name":"四川马回电力股份有限公司",
"location":"四川省南充市"
},
{
"id":"p367",
"longitude":103.824166,
"latitude":29.415929,
"feature":"火力发电站",
"name":"五通桥发电厂",
"location":"四川乐山"
},
{
"id":"p368",
"longitude":103.499033,
"latitude":31.06405,
"feature":"火力发电站",
"name":"福堂水电有限公司",
"location":"四川阿坝藏族羌族自治州"
},
{
"id":"p369",
"longitude":105.655225,
"latitude":32.387571,
"feature":"火力发电站",
"name":"宝珠寺发电厂",
"location":"四川广元"
},
{
"id":"p370",
"longitude":87.623131,
"latitude":43.825976,
"feature":"风力发电战",
"name":"达坂城风力发电有限责任公司",
"location":"新疆乌鲁木齐"
},
{
"id":"p371",
"longitude":102.623729,
"latitude":25.002015,
"feature":"火力发电站",
"name":"昆明发电厂",
"location":"云南昆明"
},
{
"id":"p372",
"longitude":102.748173,
"latitude":25.031517,
"feature":"火力发电站",
"name":"巡检司发电厂",
"location":"云南昆明"
},
{
"id":"p373",
"longitude":102.701041,
"latitude":25.053981,
"feature":"火力发电站",
"name":"以礼河发电厂",
"location":"云南昆明"
},
{
"id":"p374",
"longitude":120.414684,
"latitude":30.122409,
"feature":"火力发电站",
"name":"浙江钱清发电有限责任公司",
"location":"浙江绍兴"
},
{
"id":"p375",
"longitude":104.778337,
"latitude":36.732816,
"feature":"火力发电站",
"name":"国电靖远发电有限公司",
"location":"福建南平"
},
{
"id":"p376",
"longitude":108.968741,
"latitude":23.61556,
"feature":"火力发电站",
"name":"合山电厂",
"location":"广西壮族自治区来宾市"
},
{
"id":"p377",
"longitude":110.075729,
"latitude":25.104265,
"feature":"火力发电站",
"name":"国电永福发电公司",
"location":"广西桂林"
},
{
"id":"p378",
"longitude":106.877251,
"latitude":39.662726,
"feature":"火力发电站",
"name":"京海煤矸石发电有限责任公司",
"location":"内蒙古乌海"
},
{
"id":"p379",
"longitude":119.750566,
"latitude":49.245971,
"feature":"火力发电站",
"name":"海拉尔热电厂",
"location":"内蒙古呼伦贝尔"
},
{
"id":"p380",
"longitude":122.067341,
"latitude":46.083008,
"feature":"火力发电站",
"name":"乌兰浩特热电厂",
"location":"内蒙古兴安盟"
},
{
"id":"p381",
"longitude":105.695092,
"latitude":26.219259,
"feature":"火力发电站",
"name":"安顺发电厂",
"location":"贵州安顺"
},
{
"id":"p382",
"longitude":107.971386,
"latitude":26.588841,
"feature":"火力发电站",
"name":"凯里发电厂",
"location":"贵州黔东南苗族侗族自治州"
},
{
"id":"p383",
"longitude":117.772647,
"latitude":40.955596,
"feature":"火力发电站",
"name":"滦河发电厂",
"location":"河北承德"
},
{
"id":"p384",
"longitude":115.614565,
"latitude":37.751518,
"feature":"火力发电站",
"name":" 衡丰电厂",
"location":"河北衡水"
},
{
"id":"p385",
"longitude":112.314227,
"latitude":30.256311,
"feature":"火力发电站",
"name":"沙隆达热电公司",
"location":"湖北荆州"
},
{
"id":"p386",
"longitude":126.68591,
"latitude":43.733498,
"feature":"火力发电站",
"name":"丰满发电厂",
"location":"吉林省吉林市"
},
{
"id":"p387",
"longitude":123.484683,
"latitude":43.533517,
"feature":"火力发电站",
"name":"双辽发电厂",
"location":"吉林省四平市"
},
{
"id":"p389",
"longitude":119.590964,
"latitude":32.176981,
"feature":"火力发电站",
"name":"谏壁发电厂",
"location":"江苏省镇江市"
},
{
"id":"p390",
"longitude":115.724955,
"latitude":28.19415,
"feature":"火力发电站",
"name":"江西丰城发电有限责任公司",
"location":"江西省宜春市"
},
{
"id":"p391",
"longitude":114.80892,
"latitude":26.455207,
"feature":"火力发电站",
"name":"万安水电厂",
"location":"江西吉安"
},
{
"id":"p392",
"longitude":123.394941,
"latitude":41.852488,
"feature":"火力发电站",
"name":"\r\n皇姑热电厂",
"location":"辽宁沈阳"
},
{
"id":"p393",
"longitude":125.392498,
"latitude":41.300054,
"feature":"火力发电站",
"name":"桓仁发电厂",
"location":"辽宁本溪"
},
{
"id":"p394",
"longitude":124.80003,
"latitude":40.726649,
"feature":"火力发电站",
"name":"太平哨发电厂",
"location":"辽宁丹东"
},
{
"id":"p395",
"longitude":120.333685,
"latitude":41.633524,
"feature":"火力发电站",
"name":"朝阳发电厂",
"location":"辽宁朝阳"
},
{
"id":"p396",
"longitude":106.400972,
"latitude":39.047672,
"feature":"火力发电站",
"name":"大武口发电厂",
"location":"宁夏回族自治区石嘴山市"
},
{
"id":"p397",
"longitude":115.694824,
"latitude":36.255978,
"feature":"火力发电站",
"name":"山东益发热电有限责任公司",
"location":"山东聊城"
},
{
"id":"p398",
"longitude":104.073045,
"latitude":30.601059,
"feature":"水力发电站",
"name":"大渡河流域水电开发有限公司",
"location":"四川成都"
},
{
"id":"p399",
"longitude":104.772632,
"latitude":31.804792,
"feature":"火力发电站",
"name":"江油发电厂",
"location":"四川绵阳"
},
{
"id":"p400",
"longitude":107.067947,
"latitude":30.899129,
"feature":"火力发电站",
"name":"华蓥山发电厂",
"location":"四川省达州市"
},
{
"id":"p401",
"longitude":107.861869,
"latitude":32.17406,
"feature":"火力发电站",
"name":"万源发电厂",
"location":"四川达州"
},
{
"id":"p402",
"longitude":104.091556,
"latitude":30.65483,
"feature":"火力发电站",
"name":"南桠河发电厂",
"location":"四川成都"
},
{
"id":"p403",
"longitude":103.038983,
"latitude":24.963387,
"feature":"火力发电站",
"name":"阳宗海发电有限公司",
"location":"云南阿坝藏族羌族自治州"
},
{
"id":"p404",
"longitude":103.283302,
"latitude":23.708781,
"feature":"火力发电站",
"name":"国电小龙潭发电厂",
"location":"云南阿坝藏族羌族自治州"
},
{
"id":"p405",
"longitude":120.157415,
"latitude":30.285418,
"feature":"风力发电站",
"name":"浙江风力发电发展有限公司",
"location":"浙江省杭州市"
},
{
"id":"p406",
"longitude":118.361155,
"latitude":31.456718,
"feature":"火力发电站",
"name":"芜湖发电厂",
"location":"安徽省芜湖市"
},
{
"id":"p407",
"longitude":103.718477,
"latitude":36.106961,
"feature":"水力发电站",
"name":"八盘峡水电厂",
"location":"甘肃省兰州市"
},
{
"id":"p408",
"longitude":113.942774,
"latitude":35.404552,
"feature":"火力发电站",
"name":"豫新发电有限公司",
"location":"河南新乡"
},
{
"id":"p409",
"longitude":113.298349,
"latitude":33.718112,
"feature":"火力发电站",
"name":"姚孟发电有限责任公司",
"location":"河南平顶山"
},
{
"id":"p410",
"longitude":112.214607,
"latitude":33.04493,
"feature":"火力发电站",
"name":"\r\n镇平热电有限公司",
"location":"河南省南阳市"
},
{
"id":"p411",
"longitude":113.002499,
"latitude":28.121673,
"feature":"火力发电站",
"name":"湖南五凌电力有限公司",
"location":"湖南长沙"
},
{
"id":"p412",
"longitude":111.797601,
"latitude":28.502048,
"feature":"火力发电站",
"name":"马迹塘水电厂",
"location":"湖南益阳"
},
{
"id":"p413",
"longitude":115.995067,
"latitude":28.679923,
"feature":"火力发电站",
"name":"南昌发电有限公司",
"location":"江西南昌"
},
{
"id":"p415",
"longitude":117.215979,
"latitude":29.340761,
"feature":"火力发电站",
"name":"景德镇发电有限责任公司",
"location":"江西省景德镇市"
},
{
"id":"p416",
"longitude":124.1507,
"latitude":42.540258,
"feature":"火力发电站",
"name":"清河发电有限责任公司",
"location":"辽宁省铁岭市"
},
{
"id":"p417",
"longitude":105.944486,
"latitude":37.994328,
"feature":"水力发电站",
"name":"青铜峡水电厂",
"location":"宁夏回族自治区吴忠市"
},
{
"id":"p418",
"longitude":101.755986,
"latitude":36.63407,
"feature":"水力发电站",
"name":"青海省三江水电开发股份有限公司",
"location":"青海省西宁市"
},
{
"id":"p419",
"longitude":111.379623,
"latitude":35.62185,
"feature":"火力发电站",
"name":"侯马发电公司",
"location":"山西省临汾市"
},
{
"id":"p420",
"longitude":110.717826,
"latitude":35.59692,
"feature":"火力发电站",
"name":"山西河津电厂",
"location":"山西省运城市"
},
{
"id":"p421",
"longitude":117.855832,
"latitude":33.09438,
"feature":"火力发电站",
"name":"蚌埠市热电厂",
"location":"安徽省蚌埠市"
},
{
"id":"p422",
"longitude":117.182714,
"latitude":30.546661,
"feature":"火力发电站",
"name":"安庆皖江发电有限责任公司",
"location":"安徽安庆"
},
{
"id":"p423",
"longitude":116.987431,
"latitude":33.658659,
"feature":"火力发电站",
"name":"宿州汇源发电有限责任公司",
"location":"安徽宿州"
},
{
"id":"p424",
"longitude":115.751242,
"latitude":33.774558,
"feature":"火力发电站",
"name":"\r\n瑞能热电有限责任公司",
"location":"安徽省亳州市"
},
{
"id":"p425",
"longitude":117.685592,
"latitude":30.640967,
"feature":"火力发电站",
"name":"九华发电厂",
"location":"安徽省池州市"
},
{
"id":"p426",
"longitude":118.034528,
"latitude":24.45114,
"feature":"火力发电站",
"name":"华夏电力",
"location":"福建厦门"
},
{
"id":"p427",
"longitude":118.038132,
"latitude":24.574195,
"feature":"火力发电站",
"name":"永昌电力有限公司",
"location":"福建厦门"
},
{
"id":"p428",
"longitude":120.369965,
"latitude":27.176738,
"feature":"火力发电站",
"name":"德化县德义热电公司",
"location":"福建宁德"
},
{
"id":"p429",
"longitude":116.836677,
"latitude":24.599225,
"feature":"火力发电站",
"name":"永定县天丰水电公司",
"location":"福建龙岩"
},
{
"id":"p430",
"longitude":117.846903,
"latitude":25.662912,
"feature":"火力发电站",
"name":"大田县火电厂",
"location":"福建龙岩"
},
{
"id":"p431",
"longitude":108.383253,
"latitude":30.820851,
"feature":"水力发电站",
"name":"三峡发电站",
"location":"重庆"
},
{
"id":"p432",
"longitude":107.316206,
"latitude":29.708175,
"feature":"火力发电站",
"name":"重庆中机龙桥热电有限公司",
"location":"重庆"
},
{
"id":"p433",
"longitude":103.722309,
"latitude":36.099134,
"feature":"水力发电站",
"name":"刘家峡水电厂",
"location":"甘肃兰州"
},
{
"id":"p434",
"longitude":113.508168,
"latitude":23.081191,
"feature":"火力发电站",
"name":"粤华发电有限责任公司",
"location":"广东广州"
},
{
"id":"p435",
"longitude":113.583371,
"latitude":22.752083,
"feature":"水力发电站",
"name":" 广州珠江电力公司",
"location":"广东广州"
},
{
"id":"p436",
"longitude":113.577221,
"latitude":23.100346,
"feature":"火力发电站",
"name":"\r\n旺隆热电有限公司",
"location":"广东广州"
},
{
"id":"p437",
"longitude":112.919176,
"latitude":21.876477,
"feature":"火力发电站",
"name":"\r\n双水发电厂",
"location":"广东省江门市"
},
{
"id":"p438",
"longitude":113.754046,
"latitude":25.092723,
"feature":"火力发电站",
"name":"仁化县锦江电力开发总公司",
"location":"广东韶关"
},
{
"id":"p439",
"longitude":113.195527,
"latitude":21.977568,
"feature":"火力发电站",
"name":"珠海电厂",
"location":"广东珠海"
},
{
"id":"p440",
"longitude":116.704652,
"latitude":24.360967,
"feature":"火力发电站",
"name":"粤电青溪发电有限责任公司",
"location":"广东梅州"
},
{
"id":"p441",
"longitude":116.543014,
"latitude":24.430091,
"feature":"火力发电站",
"name":"梅江蓬辣滩水电站有限公司",
"location":"广东梅州"
},
{
"id":"p442",
"longitude":113.890152,
"latitude":22.50018,
"feature":"火力发电站",
"name":"月亮湾燃机电厂",
"location":"广州深圳"
},
{
"id":"p443",
"longitude":113.991034,
"latitude":22.540955,
"feature":"火力发电站",
"name":"\r\n深圳南山热电股份有限公司",
"location":"广东深圳"
},
{
"id":"p444",
"longitude":114.148373,
"latitude":22.719652,
"feature":"火力发电站",
"name":"\r\n深圳钰湖电力有限公司",
"location":"广东深圳"
},
{
"id":"p445",
"longitude":113.146763,
"latitude":23.081391,
"feature":"火力发电站",
"name":"佛山市南海区环保发电厂",
"location":"广东佛山"
},
{
"id":"p446",
"longitude":112.858093,
"latitude":23.022867,
"feature":"火力发电站",
"name":"恒益电厂",
"location":"广东佛山"
},
{
"id":"p447",
"longitude":110.382035,
"latitude":21.277698,
"feature":"风力发电站",
"name":"粤电湛江风力发电有限公司",
"location":"广东湛江"
},
{
"id":"p448",
"longitude":113.637154,
"latitude":22.819377,
"feature":"火力发电站",
"name":"东莞虎门电厂",
"location":"广东东莞"
},
{
"id":"p449",
"longitude":109.396602,
"latitude":24.373848,
"feature":"火力发电站",
"name":" 柳州发电有限责任公司",
"location":"广西柳州"
},
{
"id":"p450",
"longitude":106.595016,
"latitude":23.88034,
"feature":"火力发电站",
"name":"东笋发电厂",
"location":"广西壮族自治区百色市"
},
{
"id":"p451",
"longitude":108.639016,
"latitude":24.502342,
"feature":"火力发电站",
"name":" 宜州水电总厂",
"location":"广西壮族自治区河池市"
},
{
"id":"p452",
"longitude":104.516813,
"latitude":26.014893,
"feature":"火力发电站",
"name":"贵州黔桂发电有限责任公司",
"location":"广西六盘水"
},
{
"id":"p453",
"longitude":110.857387,
"latitude":19.578313,
"feature":"火力发电站",
"name":"文昌清澜电厂",
"location":"海南省文昌市"
},
{
"id":"p454",
"longitude":115.946484,
"latitude":39.432726,
"feature":"火力发电站",
"name":"涿州市发电厂",
"location":"河北省保定市"
},
{
"id":"p455",
"longitude":114.496475,
"latitude":37.020424,
"feature":"火力发电站",
"name":"邢台兴泰发电有限公司",
"location":"河北省邢台市"
},
{
"id":"p456",
"longitude":119.390707,
"latitude":39.930261,
"feature":"火力发电站",
"name":"秦皇岛热电厂",
"location":"河北省秦皇岛"
},
{
"id":"p457",
"longitude":119.535601,
"latitude":39.948914,
"feature":"火力发电站",
"name":"秦皇岛同和热电有限公司",
"location":"河北省秦皇岛"
},
{
"id":"p458",
"longitude":113.710574,
"latitude":34.401405,
"feature":"火力发电站",
"name":"新郑市火电厂",
"location":"河南省郑州市"
},
{
"id":"p459",
"longitude":113.68734,
"latitude":34.81034,
"feature":"火力发电站",
"name":"郑州发祥电力有限公司",
"location":"河南省郑州市"
},
{
"id":"p460",
"longitude":113.873374,
"latitude":36.116962,
"feature":"火力发电站",
"name":"林州热电有限责任公司",
"location":"河南安阳"
},
{
"id":"p461",
"longitude":113.801269,
"latitude":34.044341,
"feature":"火力发电站",
"name":"河南能信热电有限公司",
"location":"河南省许昌市"
},
{
"id":"p462",
"longitude":112.831218,
"latitude":34.12401,
"feature":"火力发电站",
"name":"瑞平热电有限公司",
"location":"河南省平顶山市"
},
{
"id":"p463",
"longitude":112.58956,
"latitude":33.094413,
"feature":"火力发电站",
"name":"蒲山电厂",
"location":"河南省南阳市"
},
{
"id":"p464",
"longitude":112.765185,
"latitude":34.732928,
"feature":"火力发电站",
"name":"首阳山电厂",
"location":"河南洛阳"
},
{
"id":"p465",
"longitude":115.658934,
"latitude":34.415531,
"feature":"火力发电站",
"name":"河南商丘电力公司",
"location":"河南商丘"
},
{
"id":"p466",
"longitude":114.179948,
"latitude":35.628347,
"feature":"火力发电站",
"name":"恒力热电有限公司",
"location":"河南新乡"
},
{
"id":"p467",
"longitude":115.091531,
"latitude":35.731786,
"feature":"火力发电站",
"name":"濮阳市热电厂",
"location":"河南省濮阳市"
},
{
"id":"p468",
"longitude":114.949405,
"latitude":33.433371,
"feature":"火力发电站",
"name":"\r\n财鑫热电有限公司",
"location":"河南省周口市"
},
{
"id":"p469",
"longitude":114.011973,
"latitude":33.608467,
"feature":"火力发电站",
"name":"\r\n漯河恒瑞热电有限公司",
"location":"河南漯河市"
},
{
"id":"p470",
"longitude":114.069331,
"latitude":33.052531,
"feature":"火力发电站",
"name":"驻马店热电有限公司",
"location":"河南省驻马店市"
},
{
"id":"p471",
"longitude":111.817839,
"latitude":34.76233,
"feature":"火力发电站",
"name":"华能热电厂",
"location":"河南三门峡"
},
{
"id":"p472",
"longitude":111.099923,
"latitude":34.734871,
"feature":"火力发电站",
"name":"陕县热电厂",
"location":"河南省三门峡市"
},
{
"id":"p473",
"longitude":126.977093,
"latitude":45.559642,
"feature":"火力发电站",
"name":" 黑龙江岁宝热电公司",
"location":"黑龙江省哈尔滨市"
},
{
"id":"p474",
"longitude":128.033687,
"latitude":45.953818,
"feature":"火力发电站",
"name":"\r\n鹏翔热电公司",
"location":"黑龙江省哈尔滨市"
},
{
"id":"p475",
"longitude":129.63354,
"latitude":44.585902,
"feature":"水力发电站",
"name":"牡丹江水力发电总厂",
"location":"吉林长春"
},
{
"id":"p476",
"longitude":132.657485,
"latitude":47.259002,
"feature":"火力发电站",
"name":"三江热电有限责任公司",
"location":"黑龙江省佳木斯市"
},
{
"id":"p477",
"longitude":125.326247,
"latitude":47.90577,
"feature":"火力发电站",
"name":"依安县东成德利供电公司",
"location":"黑龙江齐齐哈尔"
},
{
"id":"p478",
"longitude":131.861491,
"latitude":47.294396,
"feature":"火力发电站",
"name":"绥滨县发电厂",
"location":"黑龙江大庆"
},
{
"id":"p479",
"longitude":134.035509,
"latitude":46.806596,
"feature":"火力发电站",
"name":" 饶河县热电厂",
"location":"黑龙江双鸭山市"
},
{
"id":"p480",
"longitude":114.898883,
"latitude":30.398259,
"feature":"火力发电站",
"name":" 鄂州电厂",
"location":"湖北省鄂州市"
},
{
"id":"p481",
"longitude":112.197878,
"latitude":30.345256,
"feature":"火力发电站",
"name":"荆州城南热电公司",
"location":"湖北荆州"
},
{
"id":"p482",
"longitude":112.197878,
"latitude":30.345256,
"feature":"水力发电站",
"name":"葛洲坝水力发电厂",
"location":"湖北宜昌"
},
{
"id":"p483",
"longitude":112.738418,
"latitude":25.753656,
"feature":"火力发电站",
"name":"郴州市电厂",
"location":"湖南省郴州市"
},
{
"id":"p484",
"longitude":113.248436,
"latitude":25.939292,
"feature":"火力发电站",
"name":"湖南资兴市东江电厂",
"location":"湖南省郴州市"
},
{
"id":"p485",
"longitude":110.637794,
"latitude":26.735364,
"feature":"火力发电站",
"name":"武冈市电厂",
"location":"湖南省邵阳市"
},
{
"id":"p486",
"longitude":110.154608,
"latitude":29.395237,
"feature":"火力发电站",
"name":"桑植电力有限公司",
"location":"湖南省张家界市"
},
{
"id":"p487",
"longitude":111.133777,
"latitude":29.438393,
"feature":"火力发电站",
"name":"湘慈爱依斯水电公司",
"location":"湖南省张家界市"
},
{
"id":"p488",
"longitude":110.305094,
"latitude":28.71613,
"feature":"火力发电站",
"name":"凤滩水电厂",
"location":"湖北十堰"
},
{
"id":"p489",
"longitude":109.971066,
"latitude":27.542424,
"feature":"火力发电站",
"name":"怀化发电厂",
"location":"湖南怀化"
},
{
"id":"p490",
"longitude":109.83006,
"latitude":27.200078,
"feature":"火力发电站",
"name":"会同电力有限责任公司",
"location":"湖南怀化"
},
{
"id":"p491",
"longitude":126.750637,
"latitude":42.986602,
"feature":"火力发电站",
"name":"桦甸市热电厂",
"location":"吉林市桦甸市"
},
{
"id":"p492",
"longitude":126.457051,
"latitude":41.958265,
"feature":"火力发电站",
"name":"浑江发电公司",
"location":"吉林省白山市"
},
{
"id":"p493",
"longitude":127.283009,
"latitude":42.323688,
"feature":"火力发电站",
"name":" 松江河发电厂",
"location":"吉林省白山市"
},
{
"id":"p494",
"longitude":118.826974,
"latitude":31.963154,
"feature":"火力发电站",
"name":"南京新苏热电有限公司",
"location":"江苏南京"
},
{
"id":"p495",
"longitude":120.27876,
"latitude":31.608992,
"feature":"火力发电站",
"name":"无锡市双河尖热电厂",
"location":"江苏省无锡市"
},
{
"id":"p496",
"longitude":120.214107,
"latitude":31.920643,
"feature":"火力发电站",
"name":"江阴苏龙发电有限公司",
"location":"江苏省无锡市"
},
{
"id":"p497",
"longitude":120.424135,
"latitude":31.843364,
"feature":"火力发电站",
"name":"夏港电厂",
"location":"江苏省无锡市"
},
{
"id":"p498",
"longitude":119.493258,
"latitude":32.132084,
"feature":"火力发电站",
"name":"镇江丁卯桥热电厂",
"location":"江苏省镇江市"
},
{
"id":"p499",
"longitude":119.627929,
"latitude":32.00664,
"feature":"火力发电站",
"name":"丹阳市龙源热电厂",
"location":"江苏省镇江市"
},
{
"id":"p500",
"longitude":120.657422,
"latitude":31.313127,
"feature":"火力发电站",
"name":"常熟发电有限公司",
"location":"江苏常熟"
},
{
"id":"p501",
"longitude":120.801,
"latitude":32.03176,
"feature":"火力发电站",
"name":"南通新兴热电有限公司",
"location":"江苏南通"
},
{
"id":"p502",
"longitude":120.129121,
"latitude":33.408223,
"feature":"火力发电站",
"name":"盐城发电厂",
"location":"江苏省盐城市"
},
{
"id":"p503",
"longitude":120.348459,
"latitude":32.861817,
"feature":"火力发电站",
"name":"东台市热电厂",
"location":"江苏省盐城市"
},
{
"id":"p504",
"longitude":117.340218,
"latitude":34.365259,
"feature":"火力发电站",
"name":"贾汪发电厂",
"location":"江苏省徐州"
},
{
"id":"p505",
"longitude":118.213175,
"latitude":33.465686,
"feature":"火力发电站",
"name":"宿迁市发电厂",
"location":"江苏省宿迁市"
},
{
"id":"p506",
"longitude":119.16632,
"latitude":34.593988,
"feature":"火力发电站",
"name":"\r\n连云港苏源电力工程有限公司",
"location":"江苏省连云港"
},
{
"id":"p507",
"longitude":119.837472,
"latitude":32.902764,
"feature":"火力发电站",
"name":"兴化热电有限公司",
"location":"江苏省泰州市"
},
{
"id":"p508",
"longitude":119.271821,
"latitude":34.311016,
"feature":"火力发电站",
"name":"连云港灌云供电公司",
"location":"江苏省连云港"
},
{
"id":"p509",
"longitude":117.546502,
"latitude":29.003477,
"feature":"火力发电站",
"name":"德兴市发电公司",
"location":"江西省上饶市"
},
{
"id":"p510",
"longitude":114.367363,
"latitude":28.51858,
"feature":"火力发电站",
"name":"铜鼓县发电公司",
"location":"江西宜春"
},
{
"id":"p511",
"longitude":115.728184,
"latitude":28.194401,
"feature":"火力发电站",
"name":"国电丰城发电有限公司",
"location":"江西宜春"
},
{
"id":"p512",
"longitude":113.972665,
"latitude":27.621041,
"feature":"火力发电站",
"name":"萍矿高坑发电厂",
"location":"江西萍乡"
},
{
"id":"p513",
"longitude":114.935661,
"latitude":27.832516,
"feature":"火力发电站",
"name":"新余发电有限责任公司",
"location":"江西新余"
},
{
"id":"p514",
"longitude":122.064359,
"latitude":41.165606,
"feature":"火力发电站",
"name":"盘锦市热电有限公司",
"location":"辽宁省盘锦市"
},
{
"id":"p515",
"longitude":119.911362,
"latitude":40.027202,
"feature":"火力发电站",
"name":"绥中发电有限公司",
"location":"辽宁省葫芦岛市"
},
{
"id":"p516",
"longitude":117.68813,
"latitude":49.391697,
"feature":"火力发电站",
"name":"灵泉发电厂",
"location":"内蒙呼伦贝尔"
},
{
"id":"p517",
"longitude":106.729231,
"latitude":39.447316,
"feature":"火力发电站",
"name":"神华能源电厂",
"location":"内蒙古乌海市"
},
{
"id":"p518",
"longitude":109.950805,
"latitude":39.802209,
"feature":"火力发电站",
"name":"鄂尔多斯热电有限公司",
"location":"内蒙古自治区鄂尔多斯市"
},
{
"id":"p519",
"longitude":106.699417,
"latitude":38.074265,
"feature":"火力发电站",
"name":"银川热电有限公司",
"location":"宁夏回族自治区银川市"
},
{
"id":"p520",
"longitude":105.682874,
"latitude":37.50585,
"feature":"火力发电站",
"name":"中宁县发电厂",
"location":"宁夏中卫"
},
{
"id":"p521",
"longitude":101.723176,
"latitude":36.915717,
"feature":"火力发电站",
"name":"桥头发电厂",
"location":"青海省西宁市"
},
{
"id":"p523",
"longitude":97.028075,
"latitude":33.006598,
"feature":"火力发电站",
"name":"青海省玉树电力公司",
"location":"青海省玉树藏族自治州"
},
{
"id":"p524",
"longitude":101.621096,
"latitude":37.368934,
"feature":"火力发电站",
"name":"海北州发电公司",
"location":"青海省海北藏族自治州"
},
{
"id":"p525",
"longitude":94.908945,
"latitude":36.39724,
"feature":"光伏发电站",
"name":"格尔木光伏发电有限公司",
"location":"青海省海西蒙古族藏族自治州"
},
{
"id":"p526",
"longitude":120.00331,
"latitude":36.783027,
"feature":"火力发电站",
"name":"平度市热电厂",
"location":"山东青岛"
},
{
"id":"p527",
"longitude":120.565708,
"latitude":36.665697,
"feature":"火力发电站",
"name":"莱西市发电厂",
"location":"山东青岛"
},
{
"id":"p528",
"longitude":120.415532,
"latitude":36.401317,
"feature":"火力发电站",
"name":"即墨市热电厂",
"location":"山东青岛"
},
{
"id":"p529",
"longitude":118.193174,
"latitude":36.186768,
"feature":"火力发电站",
"name":"沂源县热电有限公司",
"location":"山东淄博"
},
{
"id":"p530",
"longitude":117.848379,
"latitude":36.822516,
"feature":"火力发电站",
"name":"淄博嘉周热电公司",
"location":"山东淄博"
},
{
"id":"p531",
"longitude":116.682807,
"latitude":36.936221,
"feature":"火力发电站",
"name":"禹城市热电厂",
"location":"山东省德州市"
},
{
"id":"p532",
"longitude":117.571267,
"latitude":34.880089,
"feature":"火力发电站",
"name":"枣庄热电公司",
"location":"山东枣庄"
},
{
"id":"p533",
"longitude":120.331409,
"latitude":37.682469,
"feature":"火力发电站",
"name":" 烟台发电厂",
"location":"山东烟台"
},
{
"id":"p534",
"longitude":120.324622,
"latitude":37.683007,
"feature":"火力发电站",
"name":" 百年电力发展有限公司",
"location":"山东烟台"
},
{
"id":"p535",
"longitude":120.028662,
"latitude":37.433555,
"feature":"火力发电站",
"name":"莱州发电有限公司",
"location":"山东烟台"
},
{
"id":"p536",
"longitude":119.212469,
"latitude":36.449693,
"feature":"火力发电站",
"name":"安丘热电有限责任公司",
"location":"山东省潍坊市"
},
{
"id":"p537",
"longitude":118.915609,
"latitude":37.274454,
"feature":"火力发电站",
"name":"寿光热电厂有限公司",
"location":"山东寿光热电厂有限公司"
},
{
"id":"p538",
"longitude":116.801906,
"latitude":35.583279,
"feature":"火力发电站",
"name":"兖州市热电公司",
"location":"山东省济宁市"
},
{
"id":"p539",
"longitude":116.803532,
"latitude":35.346367,
"feature":"火力发电站",
"name":"里能集团里彦发电有限公司",
"location":"山东省济宁市"
},
{
"id":"p540",
"longitude":116.699301,
"latitude":35.429217,
"feature":"火力发电站",
"name":"山东金硕煤电有限公司",
"location":"山东省济宁市"
},
{
"id":"p541",
"longitude":116.484274,
"latitude":35.489304,
"feature":"火力发电站",
"name":"运河发电有限公司",
"location":"山东省济宁市"
},
{
"id":"p542",
"longitude":116.459536,
"latitude":35.927505,
"feature":"火力发电站",
"name":"山东东平热电公司",
"location":"山东省泰安市"
},
{
"id":"p543",
"longitude":116.533353,
"latitude":36.22121,
"feature":"火力发电站",
"name":"\r\n阿斯德热电厂",
"location":"山东省泰安市"
},
{
"id":"p544",
"longitude":116.530735,
"latitude":36.201329,
"feature":"火力发电站",
"name":"石横发电厂",
"location":"山东省泰安市"
},
{
"id":"p545",
"longitude":116.234184,
"latitude":36.88843,
"feature":"火力发电站",
"name":"山东泉林集团热电有限公司",
"location":"山东聊城"
},
{
"id":"p546",
"longitude":118.335756,
"latitude":35.017535,
"feature":"火力发电站",
"name":"临沂发电有限责任公司",
"location":"山东省临沂市"
},
{
"id":"p547",
"longitude":117.955684,
"latitude":35.386326,
"feature":"火力发电站",
"name":"上源热电公司",
"location":"山东省临沂市"
},
{
"id":"p548",
"longitude":118.085248,
"latitude":37.734827,
"feature":"火力发电站",
"name":"沾化发电厂",
"location":"山东省滨州市"
},
{
"id":"p549",
"longitude":117.711947,
"latitude":36.953326,
"feature":"火力发电站",
"name":"顶峰热电有限公司",
"location":"山东省滨州市"
},
{
"id":"p550",
"longitude":120.462048,
"latitude":37.737396,
"feature":"火力发电站",
"name":"蓬莱东海热电有限公司",
"location":"山东省烟台市"
},
{
"id":"p551",
"longitude":121.510719,
"latitude":36.907795,
"feature":"火力发电站",
"name":"乳山市热电厂",
"location":"山东威海"
},
{
"id":"p552",
"longitude":122.440116,
"latitude":37.152643,
"feature":"火力发电站",
"name":"荣成市发电厂",
"location":"山东威海"
},
{
"id":"p553",
"longitude":122.00816,
"latitude":37.17822,
"feature":"火力发电站",
"name":"文登市热电厂",
"location":"山东威海"
},
{
"id":"p554",
"longitude":118.858161,
"latitude":35.629685,
"feature":"火力发电站",
"name":"莒县热电厂",
"location":"山东省日照市"
},
{
"id":"p555",
"longitude":119.199494,
"latitude":35.773317,
"feature":"火力发电站",
"name":"五莲县热电厂",
"location":"山东省日照市"
},
{
"id":"p556",
"longitude":117.69051,
"latitude":36.135057,
"feature":"火力发电站",
"name":"莱芜发电厂",
"location":"山东莱芜"
},
{
"id":"p557",
"longitude":113.707361,
"latitude":39.695842,
"feature":"火力发电站",
"name":"山西恒山发电厂",
"location":"山西省大同市"
},
{
"id":"p558",
"longitude":113.604984,
"latitude":37.862146,
"feature":"火力发电站",
"name":" 阳泉第二发电厂有限公司",
"location":"山西省阳泉市"
},
{
"id":"p559",
"longitude":112.573685,
"latitude":35.4743,
"feature":"火力发电站",
"name":"阳城县上伏电厂",
"location":"山西省晋城市"
},
{
"id":"p560",
"longitude":112.579279,
"latitude":35.473639,
"feature":"火力发电站",
"name":"阳城国际发电有限公司",
"location":"山西省晋城市"
},
{
"id":"p561",
"longitude":110.829131,
"latitude":37.426184,
"feature":"火力发电站",
"name":"山西柳林电力有限责任公司",
"location":"山西省吕梁市"
},
{
"id":"p562",
"longitude":111.152758,
"latitude":39.076291,
"feature":"火力发电站",
"name":"偏关县发电厂",
"location":"山西省忻州市"
},
{
"id":"p563",
"longitude":109.820265,
"latitude":38.304383,
"feature":"火力发电站",
"name":"榆林热电厂",
"location":"陕西省榆林市"
},
{
"id":"p564",
"longitude":110.173363,
"latitude":38.74492,
"feature":"火力发电站",
"name":"陕西国华锦界能源有限责任公司",
"location":"陕西省榆林市"
},
{
"id":"p565",
"longitude":109.234859,
"latitude":34.724051,
"feature":"火力发电站",
"name":"渭南热电厂",
"location":"陕西西安"
},
{
"id":"p566",
"longitude":109.579,
"latitude":34.961053,
"feature":"火力发电站",
"name":"蒲城县城西发电厂",
"location":"陕西省渭南市"
},
{
"id":"p567",
"longitude":109.946673,
"latitude":35.15491,
"feature":"火力发电站",
"name":"澄城县电厂",
"location":"陕西省渭南市"
},
{
"id":"p568",
"longitude":109.013291,
"latitude":32.676379,
"feature":"火力发电站",
"name":"安康水电厂",
"location":"陕西省安康市"
},
{
"id":"p569",
"longitude":109.026854,
"latitude":32.687698,
"feature":"水力发电站",
"name":"陕西汉江水电开发有限责任公司",
"location":"陕西省安康市"
},
{
"id":"p570",
"longitude":107.235076,
"latitude":34.49779,
"feature":"火力发电站",
"name":"陕西宝鸡第二发电有限责任公司",
"location":"陕西省宝鸡市"
},
{
"id":"p571",
"longitude":103.655558,
"latitude":30.993,
"feature":"火力发电站",
"name":"映秀湾水力发电总厂",
"location":"四川成都"
},
{
"id":"p572",
"longitude":103.954758,
"latitude":30.907803,
"feature":"火力发电站",
"name":"高宁水电站",
"location":"四川成都"
},
{
"id":"p573",
"longitude":107.486397,
"latitude":31.089094,
"feature":"火力发电站",
"name":"达川热电厂",
"location":"四川省达州市"
},
{
"id":"p574",
"longitude":103.372755,
"latitude":29.905984,
"feature":"水力发电站",
"name":"槽渔滩水电股份公司",
"location":"四川省眉山市"
},
{
"id":"p575",
"longitude":103.085003,
"latitude":29.250023,
"feature":"火力发电站",
"name":"金峨供电公司",
"location":"四川乐山"
},
{
"id":"p576",
"longitude":102.807487,
"latitude":31.666551,
"feature":"火力发电站",
"name":"阿坝州理县水电厂",
"location":"四川省阿坝藏族羌族自治州"
},
{
"id":"p577",
"longitude":103.742359,
"latitude":31.585131,
"feature":"火力发电站",
"name":"南新电厂",
"location":"四川省阿坝藏族羌族自治州"
},
{
"id":"p578",
"longitude":88.89818,
"latitude":29.27023,
"feature":"火力发电站",
"name":"日喀则市塘河电厂",
"location":"西藏自治区桑珠孜区"
},
{
"id":"p579",
"longitude":81.210429,
"latitude":40.594624,
"feature":"火力发电站",
"name":"\r\n阿拉尔盛源热电有限责任公司",
"location":"新疆维吾尔自治区阿拉尔市"
},
{
"id":"p580",
"longitude":86.023755,
"latitude":44.334976,
"feature":"火力发电站",
"name":"天富热电股份公司热电厂",
"location":"新疆石河子市"
},
{
"id":"p581",
"longitude":86.187084,
"latitude":44.32166,
"feature":"火力发电站",
"name":"新疆玛纳斯发电厂",
"location":"新疆维吾尔自治区昌吉回族自治州"
},
{
"id":"p582",
"longitude":81.545349,
"latitude":41.997462,
"feature":"火力发电站",
"name":"新疆拜城县火电厂",
"location":"新疆维吾尔自治区阿克苏地区"
},
{
"id":"p583",
"longitude":80.247379,
"latitude":41.276483,
"feature":"火力发电站",
"name":"新疆温宿县电力公司",
"location":"新疆阿克苏地区"
},
{
"id":"p584",
"longitude":82.22807,
"latitude":43.486372,
"feature":"火力发电站",
"name":"伊犁电厂",
"location":"新疆维吾尔自治区伊犁哈萨克自治州"
},
{
"id":"p585",
"longitude":93.498265,
"latitude":42.832874,
"feature":"火力发电站",
"name":"哈密第一发电厂",
"location":"新疆维吾尔自治区伊州"
},
{
"id":"p586",
"longitude":103.56281,
"latitude":22.695165,
"feature":"火力发电站",
"name":"天生桥电站",
"location":"云南省红河哈尼族彝族自治州"
},
{
"id":"p587",
"longitude":104.313248,
"latitude":24.895165,
"feature":"火力发电站",
"name":"鲁布革水力发电总厂",
"location":"云南省曲靖市"
},
{
"id":"p588",
"longitude":98.499225,
"latitude":25.01744,
"feature":"火力发电站",
"name":"腾冲县电力公司曲石电站",
"location":"云南省保山市"
},
{
"id":"p589",
"longitude":102.009112,
"latitude":23.598723,
"feature":"火力发电站",
"name":"滑石板电厂",
"location":"云南玉溪"
},
{
"id":"p590",
"longitude":99.919618,
"latitude":24.613718,
"feature":"火力发电站",
"name":"凤庆县供电有限责任公司",
"location":"云南省临沧市"
},
{
"id":"p591",
"longitude":100.100031,
"latitude":23.891199,
"feature":"火力发电站",
"name":"云南大朝山水电有限责任公司",
"location":"云南省临沧市"
},
{
"id":"p592",
"longitude":119.272773,
"latitude":29.480217,
"feature":"水力发电站",
"name":"新安江水力发电厂",
"location":"浙江杭州"
},
{
"id":"p593",
"longitude":119.656303,
"latitude":29.715649,
"feature":"水力发电站",
"name":"富春江水力发电厂",
"location":"浙江杭州"
},
{
"id":"p594",
"longitude":120.17041,
"latitude":30.474199,
"feature":"火力发电站",
"name":"杭州塘栖热电有限公司",
"location":"浙江省杭州市"
},
{
"id":"p595",
"longitude":120.176918,
"latitude":30.4018,
"feature":"火力发电站",
"name":"余杭市崇贤热电厂",
"location":"浙江省杭州市"
},
{
"id":"p596",
"longitude":120.389625,
"latitude":30.235039,
"feature":"火力发电站",
"name":"萧山红山热电有限公司",
"location":"浙江杭州"
},
{
"id":"p597",
"longitude":121.232191,
"latitude":30.69043,
"feature":"火力发电站",
"name":"平湖嘉兴发电有限责任公司",
"location":"浙江省嘉兴市"
},
{
"id":"p598",
"longitude":120.923751,
"latitude":30.891152,
"feature":"火力发电站",
"name":"浙江省中成热电有限公司",
"location":"浙江省嘉兴市"
},
{
"id":"p599",
"longitude":120.552192,
"latitude":30.616476,
"feature":"火力发电站",
"name":" 桐乡泰爱斯热电有限公司",
"location":"浙江省嘉兴市"
},
{
"id":"p600",
"longitude":121.69712,
"latitude":29.953776,
"feature":"火力发电站",
"name":"镇海发电有限责任公司",
"location":"浙江省宁波市"
},
{
"id":"p601",
"longitude":120.252317,
"latitude":29.705384,
"feature":"火力发电站",
"name":"暨阳协联热电有限公司",
"location":"浙江绍兴"
},
{
"id":"p602",
"longitude":120.637485,
"latitude":30.093014,
"feature":"火力发电站",
"name":"绍兴市马山热电厂",
"location":"浙江省绍兴市"
},
{
"id":"p603",
"longitude":120.512513,
"latitude":30.137148,
"feature":"火力发电站",
"name":"浙江沪光热电公司",
"location":"浙江省绍兴市"
},
{
"id":"p604",
"longitude":121.701053,
"latitude":29.017944,
"feature":"火力发电站",
"name":"台州发电厂",
"location":"浙江省台州市"
},
{
"id":"p605",
"longitude":120.750531,
"latitude":28.843906,
"feature":"火力发电站",
"name":"仙居县热电厂",
"location":"浙江台州"
},
{
"id":"p606",
"longitude":119.432825,
"latitude":29.251263,
"feature":"火力发电站",
"name":"金华市热电厂",
"location":"浙江省金华市"
},
{
"id":"p607",
"longitude":120.829556,
"latitude":33.127729,
"feature":"风力发电站",
"name":"中电大丰风力发电有限公司",
"location":"江苏省盐城市"
},
{
"id":"p608",
"longitude":121.38363,
"latitude":32.428026,
"feature":"风力发电站",
"name":"中广核如东海上风力发电有限公司",
"location":"江苏省南通"
},
{
"id":"p609",
"longitude":120.512266,
"latitude":37.094915,
"feature":"风力发电站",
"name":"大唐胶南风力发电有限公司",
"location":"山东省青岛"
},
{
"id":"p610",
"longitude":121.278757,
"latitude":30.808859,
"feature":"风力发电站",
"name":"上海金堰风力发电设备有限公司",
"location":"上海"
},
{
"id":"p611",
"longitude":121.730343,
"latitude":31.031852,
"feature":"风力发电站",
"name":"爱郎风力发电有限公司",
"location":"上海"
},
{
"id":"p612",
"longitude":121.406189,
"latitude":31.180204,
"feature":"风力发电站",
"name":"\r\n申能长兴风力发电公司",
"location":"上海"
},
{
"id":"p613",
"longitude":116.29298,
"latitude":39.827428,
"feature":"风力发电站",
"name":"\r\n中广核风力发电有限公司",
"location":"北京"
},
{
"id":"p614",
"longitude":121.479715,
"latitude":37.466057,
"feature":"风力发电站",
"name":"华能烟台风力发电有限公司",
"location":"山东烟台"
},
{
"id":"p615",
"longitude":120.752284,
"latitude":37.913443,
"feature":"风力发电站",
"name":"山东长岛风力发电公司",
"location":"山东省烟台市"
},
{
"id":"p616",
"longitude":120.667771,
"latitude":37.326655,
"feature":"风力发电站",
"name":"国华（栖霞）风力发电有限公司",
"location":"山东省烟台市"
},
{
"id":"p617",
"longitude":118.907649,
"latitude":37.333369,
"feature":"风力发电站",
"name":"\r\n国华(广饶)风力发电有限公司",
"location":"山东省东营市"
},
{
"id":"p618",
"longitude":110.327851,
"latitude":20.038561,
"feature":"风力发电站",
"name":"海南龙源风力发电有限公司",
"location":"海南海口"
},
{
"id":"p619",
"longitude":109.865449,
"latitude":22.75827,
"feature":"风力发电站",
"name":"中节能风力发电(广西)有限公司",
"location":"广西壮族自治区玉林市"
},
{
"id":"p620",
"longitude":112.090949,
"latitude":39.041082,
"feature":"风力发电站",
"name":"华能神池风力发电有限公司",
"location":"山西省忻州市"
},
{
"id":"p621",
"longitude":118.322435,
"latitude":40.152906,
"feature":"光伏发电站",
"name":"迁西中核光伏发电有限公司",
"location":"河北省唐山市"
},
{
"id":"p622",
"longitude":118.369275,
"latitude":39.271323,
"feature":"光伏发电站",
"name":"\r\n唐山睿德光伏发电有限公司",
"location":"河北省唐山市"
},
{
"id":"p623",
"longitude":121.273143,
"latitude":37.221446,
"feature":"光伏发电站",
"name":"烟台光伏发电1",
"location":"山东烟台"
},
{
"id":"p624",
"longitude":121.318164,
"latitude":36.790266,
"feature":"光伏发电站",
"name":"烟台光伏发电2",
"location":"山东烟台"
},
{
"id":"p625",
"longitude":120.703219,
"latitude":36.981104,
"feature":"光伏发电站",
"name":"烟台光伏发电3",
"location":"山东烟台"
},
{
"id":"p626",
"longitude":115.771438,
"latitude":38.704875,
"feature":"光伏发电站",
"name":"保定光伏发电",
"location":"河北保定"
},
{
"id":"p627",
"longitude":115.349188,
"latitude":38.434279,
"feature":"光伏发电站",
"name":"保定光伏发电2",
"location":"河北保定"
},
{
"id":"p628",
"longitude":114.429996,
"latitude":37.0636,
"feature":"光伏发电站",
"name":"邢台光伏发电",
"location":"河北省邢台市"
},
{
"id":"p629",
"longitude":116.346023,
"latitude":38.398067,
"feature":"光伏发电站",
"name":"沧州光伏发电",
"location":"河北省沧州市"
},
{
"id":"p630",
"longitude":116.130206,
"latitude":38.111999,
"feature":"光伏发电站",
"name":"沧州光伏发电2",
"location":"河北省沧州市"
},
{
"id":"p631",
"longitude":114.406625,
"latitude":36.363732,
"feature":"光伏发电站",
"name":"邯郸光伏发电",
"location":"河北省邯郸市"
},
{
"id":"p632",
"longitude":118.463551,
"latitude":36.724777,
"feature":"光伏发电站",
"name":"青州光伏发电",
"location":"山东青州"
},
{
"id":"p633",
"longitude":119.759461,
"latitude":36.393266,
"feature":"光伏发电站",
"name":"高密光伏发电",
"location":"山东潍坊"
},
{
"id":"p634",
"longitude":119.458903,
"latitude":36.001733,
"feature":"光伏发电站",
"name":"\r\n汉能光伏发电",
"location":"山东潍坊"
},
{
"id":"p635",
"longitude":118.168562,
"latitude":34.956294,
"feature":"光伏发电站",
"name":"家庭光伏发电",
"location":"山东省临沂市"
},
{
"id":"p636",
"longitude":115.618693,
"latitude":36.642693,
"feature":"光伏发电站",
"name":"晶澳光伏发电",
"location":"山东省聊城市"
},
{
"id":"p637",
"longitude":121.069017,
"latitude":31.967996,
"feature":"光伏发电站",
"name":"南通光伏发电",
"location":"江苏南通"
},
{
"id":"p638",
"longitude":119.923462,
"latitude":32.493802,
"feature":"光伏发电站",
"name":"天华光伏发电",
"location":"江苏省泰州市"
},
{
"id":"p639",
"longitude":116.999981,
"latitude":34.442191,
"feature":"光伏发电站",
"name":"徐州光伏发电",
"location":"江苏省徐州市"
},
{
"id":"p640",
"longitude":116.364915,
"latitude":37.908777,
"feature":"光伏发电站",
"name":"衡水光伏发电",
"location":"河北省衡水市"
},
{
"id":"p641",
"longitude":116.474527,
"latitude":38.86587,
"feature":"光伏发电站",
"name":"廊坊光伏发电",
"location":"河北省廊坊市"
},
{
"id":"p642",
"longitude":119.164769,
"latitude":39.703005,
"feature":"光伏发电站",
"name":"力阳光伏发电",
"location":"河北省秦皇岛市"
},
{
"id":"p643",
"longitude":114.526594,
"latitude":37.969578,
"feature":"光伏发电站",
"name":"石家庄光伏发电",
"location":"河北省石家庄"
},
{
"id":"p645",
"longitude":117.943188,
"latitude":40.986109,
"feature":"光伏发电站",
"name":"晶澳光伏发电",
"location":"河北省承德市"
},
{
"id":"p646",
"longitude":112.801398,
"latitude":34.930678,
"feature":"光伏发电站",
"name":"卓伦光伏发电",
"location":"河南省焦作市"
},
{
"id":"p647",
"longitude":113.80769,
"latitude":35.475751,
"feature":"光伏发电站",
"name":"中国英利光伏发电",
"location":"河南省新乡市"
},
{
"id":"p648",
"longitude":111.647236,
"latitude":36.120759,
"feature":"光伏发电站",
"name":"格高屋顶光伏发电",
"location":"山西省临汾市"
},
{
"id":"p649",
"longitude":114.77486,
"latitude":25.676889,
"feature":"光伏发电站",
"name":"赣州晶汇光伏发电",
"location":"江西赣州"
},
{
"id":"p650",
"longitude":119.669376,
"latitude":31.09583,
"feature":"光伏发电站",
"name":"\r\n长广光伏发电分公司",
"location":"浙江省湖州市"
},
{
"id":"p651",
"longitude":108.881132,
"latitude":34.231751,
"feature":"光伏发电站",
"name":"荣坤光伏发电公司",
"location":"陕西省西安市"
},
{
"id":"p652",
"longitude":121.635677,
"latitude":29.047113,
"feature":"光伏发电站",
"name":"\r\n安泰光伏发电有限公司",
"location":"浙江省台州市"
},
{
"id":"p653",
"longitude":114.075826,
"latitude":24.958515,
"feature":"光伏发电站",
"name":"昇阳光伏发电有限公司",
"location":"广东省韶关市"
},
{
"id":"p654",
"longitude":113.115611,
"latitude":23.107305,
"feature":"光伏发电站",
"name":"正裕节能(太阳能光伏发电)",
"location":"广东省佛山市"
},
{
"id":"p655",
"longitude":94.898676,
"latitude":36.398869,
"feature":"光伏发电站",
"name":"格尔木光伏发电有限公司",
"location":"海西蒙古族藏族自治州格尔木市"
},
{
"id":"p656",
"longitude":100.61364,
"latitude":36.197018,
"feature":"光伏发电站",
"name":"海南州世能光伏发电有限公司",
"location":"青海省海南藏族自治州"
},
{
"id":"p657",
"longitude":101.836213,
"latitude":36.588755,
"feature":"光伏发电站",
"name":"青海耀阳光伏电站运维管理.",
"location":"青海西宁"
},
{
"id":"p658",
"longitude":117.439215,
"latitude":23.696293,
"feature":"光伏发电站",
"name":"漳州市南科光伏发电有限公司",
"location":"福建省漳州市"
},
{
"id":"p659",
"longitude":102.831588,
"latitude":23.62465,
"feature":"光伏发电站",
"name":"新能源光伏光能发电机",
"location":"云南省红河哈尼族彝族自治州"
},
{
"id":"p660",
"longitude":113.949236,
"latitude":41.517065,
"feature":"光伏发电站",
"name":"国电商都县光伏发电有限公司",
"location":"内蒙古乌兰察布市"
},
{
"id":"p661",
"longitude":121.398866,
"latitude":31.627289,
"feature":"光伏发电站",
"name":"交大蓝天光伏发电",
"location":"上海"
},
{
"id":"p662",
"longitude":111.779701,
"latitude":30.189421,
"feature":"光伏发电站",
"name":"同欣能源太阳能光伏发电",
"location":"湖北省荆州市"
},
{
"id":"p663",
"longitude":10.000882,
"latitude":53.449313,
"feature":"变电站",
"name":"变电站",
"location":"德国"
},
{
"id":"p664",
"longitude":10.031299,
"latitude":53.510187,
"feature":"风电站",
"name":"风电站",
"location":"德国"
},
{
"id":"p665",
"longitude":10.029958,
"latitude":53.507881,
"feature":"光伏站",
"name":"光伏站",
"location":"德国"
},
{
"id":"p666",
"longitude":8.967485,
"latitude":53.535124,
"feature":"风电站",
"name":"风电站",
"location":"德国"
},
{
"id":"p667",
"longitude":9.909065,
"latitude":53.488047,
"feature":"变电站",
"name":"变电站",
"location":"德国"
},
{
"id":"p668",
"longitude":9.502584,
"latitude":53.542624,
"feature":"变电站",
"name":"变电站",
"location":"德国"
},
{
"id":"p669",
"longitude":8.876068,
"latitude":53.505167,
"feature":"光伏站",
"name":"光伏站",
"location":"德国"
},
{
"id":"p670",
"longitude":9.137153,
"latitude":53.564377,
"feature":"风电站",
"name":"风电站",
"location":"德国"
},
{
"id":"p671",
"longitude":9.069132,
"latitude":53.566224,
"feature":"变电站",
"name":"变电站",
"location":"德国"
},
{
"id":"p672",
"longitude":8.958978,
"latitude":53.539025,
"feature":"变电站",
"name":"变电站",
"location":"德国"
},
{
"id":"p673",
"longitude":8.646116,
"latitude":53.230457,
"feature":"风电站",
"name":"风电站",
"location":"德国"
},
{
"id":"p674",
"longitude":8.802976,
"latitude":53.479625,
"feature":"风电站",
"name":"风电站",
"location":"德国"
},
{
"id":"p675",
"longitude":8.787411,
"latitude":53.474145,
"feature":"光伏站",
"name":"光伏站",
"location":"德国"
},
{
"id":"p676",
"longitude":8.719907,
"latitude":53.457467,
"feature":"风电站",
"name":"风电站",
"location":"德国"
},
{
"id":"p677",
"longitude":8.697475,
"latitude":53.442749,
"feature":"变电站",
"name":"变电站",
"location":"德国"
},
{
"id":"p678",
"longitude":8.646186,
"latitude":53.398595,
"feature":"风电站",
"name":"风电站",
"location":"德国"
},
{
"id":"p679",
"longitude":8.611462,
"latitude":53.311293,
"feature":"风电站",
"name":"风电站",
"location":"德国"
},
{
"id":"p680",
"longitude":8.515577,
"latitude":53.203976,
"feature":"变电站",
"name":"变电站",
"location":"德国"
},
{
"id":"p681",
"longitude":8.519325,
"latitude":53.20207,
"feature":"火电站",
"name":"火电站",
"location":"德国"
},
{
"id":"p682",
"longitude":8.416963,
"latitude":53.236339,
"feature":"光伏站",
"name":"光伏站",
"location":"德国"
},
{
"id":"p683",
"longitude":8.389801,
"latitude":53.394604,
"feature":"光伏站",
"name":"光伏站",
"location":"德国"
},
{
"id":"p684",
"longitude":8.398887,
"latitude":53.399313,
"feature":"风电站",
"name":"风电站",
"location":"德国"
},
{
"id":"p685",
"longitude":8.45259,
"latitude":53.428131,
"feature":"光伏站",
"name":"光伏站",
"location":"德国"
},
{
"id":"p686",
"longitude":8.457166,
"latitude":53.422723,
"feature":"风电站",
"name":"风电站",
"location":"德国"
},
{
"id":"p687",
"longitude":8.46627,
"latitude":53.421083,
"feature":"光伏站",
"name":"光伏站",
"location":"德国"
},
{
"id":"p688",
"longitude":8.475326,
"latitude":53.428377,
"feature":"变电站",
"name":"变电站",
"location":"德国"
},
{
"id":"p689",
"longitude":8.620891,
"latitude":53.51086,
"feature":"变电站",
"name":"变电站",
"location":"德国"
},
{
"id":"p690",
"longitude":7.784358,
"latitude":53.258895,
"feature":"风电站",
"name":"风电站",
"location":"德国"
},
{
"id":"p691",
"longitude":8.171107,
"latitude":53.293439,
"feature":"光伏站",
"name":"光伏站",
"location":"德国"
},
{
"id":"p692",
"longitude":11.901025,
"latitude":53.406422,
"feature":"变电站",
"name":"变电站",
"location":"德国"
},
{
"id":"p693",
"longitude":11.923903,
"latitude":53.412051,
"feature":"变电站",
"name":"变电站",
"location":"德国"
},
{
"id":"p694",
"longitude":11.925179,
"latitude":53.411158,
"feature":"变电站",
"name":"变电站",
"location":"德国"
},
{
"id":"p695",
"longitude":12.029023,
"latitude":53.474364,
"feature":"变电站",
"name":"变电站",
"location":"德国"
},
{
"id":"p696",
"longitude":12.030401,
"latitude":53.471102,
"feature":"光伏站",
"name":"光伏站",
"location":"德国"
},
{
"id":"p697",
"longitude":11.917842,
"latitude":53.424126,
"feature":"光伏站",
"name":"光伏站",
"location":"德国"
},
{
"id":"p698",
"longitude":11.894156,
"latitude":53.416934,
"feature":"风电站",
"name":"风电站",
"location":"德国"
},
{
"id":"p699",
"longitude":12.030519,
"latitude":53.325425,
"feature":"风电站",
"name":"风电站",
"location":"德国"
},
{
"id":"p700",
"longitude":12.057358,
"latitude":53.341902,
"feature":"光伏站",
"name":"光伏站",
"location":"德国"
},
{
"id":"p701",
"longitude":11.876565,
"latitude":53.364552,
"feature":"光伏站",
"name":"光伏站",
"location":"德国"
},
{
"id":"p702",
"longitude":11.808573,
"latitude":53.212567,
"feature":"风电站",
"name":"风电站",
"location":"德国"
},
{
"id":"p703",
"longitude":11.817473,
"latitude":53.147417,
"feature":"变电站",
"name":"变电站",
"location":"德国"
},
{
"id":"p704",
"longitude":11.85301,
"latitude":53.086668,
"feature":"变电站",
"name":"变电站",
"location":"德国"
},
{
"id":"p705",
"longitude":11.703046,
"latitude":52.664417,
"feature":"风电站",
"name":"风电站",
"location":"德国"
},
{
"id":"p706",
"longitude":11.734839,
"latitude":52.527266,
"feature":"风电站",
"name":"风电站",
"location":"德国"
},
{
"id":"p707",
"longitude":11.719209,
"latitude":52.613328,
"feature":"变电站",
"name":"变电站",
"location":"德国"
},
{
"id":"p708",
"longitude":11.726756,
"latitude":52.568659,
"feature":"变电站",
"name":"变电站",
"location":"德国"
},
{
"id":"p709",
"longitude":12.200025,
"latitude":53.33647,
"feature":"光伏站",
"name":"光伏站",
"location":"德国"
},
{
"id":"p710",
"longitude":11.800503,
"latitude":52.521453,
"feature":"风电站",
"name":"风电站",
"location":"德国"
},
{
"id":"p711",
"longitude":11.737547,
"latitude":52.416575,
"feature":"变电站",
"name":"变电站",
"location":"德国"
},
{
"id":"p712",
"longitude":11.8471,
"latitude":53.09235,
"feature":"光伏站",
"name":"光伏站",
"location":"德国"
},
{
"id":"p713",
"longitude":11.737986,
"latitude":52.416164,
"feature":"变电站",
"name":"变电站",
"location":"德国"
},
{
"id":"p714",
"longitude":11.721853,
"latitude":52.381335,
"feature":"风电站",
"name":"风电站",
"location":"德国"
},
{
"id":"p715",
"longitude":11.822126,
"latitude":53.074032,
"feature":"光伏站",
"name":"光伏站",
"location":"德国"
},
{
"id":"p716",
"longitude":11.651762,
"latitude":52.24907,
"feature":"光伏站",
"name":"光伏站",
"location":"德国"
},
{
"id":"p717",
"longitude":11.745436,
"latitude":52.417773,
"feature":"光伏站",
"name":"光伏站",
"location":"德国"
},
{
"id":"p718",
"longitude":11.640018,
"latitude":52.268008,
"feature":"变电站",
"name":"变电站",
"location":"德国"
},
{
"id":"p719",
"longitude":11.67908,
"latitude":52.214047,
"feature":"变电站",
"name":"变电站",
"location":"德国"
},
{
"id":"p720",
"longitude":11.680999,
"latitude":52.199778,
"feature":"风电站",
"name":"风电站",
"location":"德国"
},
{
"id":"p721",
"longitude":14.266667,
"latitude":50.04148,
"feature":"光伏站",
"name":"光伏站",
"location":"捷克"
},
{
"id":"p722",
"longitude":14.212001,
"latitude":50.054189,
"feature":"变电站",
"name":"变电站",
"location":"捷克"
},
{
"id":"p723",
"longitude":14.139417,
"latitude":50.137915,
"feature":"变电站",
"name":"变电站",
"location":"捷克"
},
{
"id":"p724",
"longitude":14.166014,
"latitude":50.151563,
"feature":"光伏站",
"name":"光伏站",
"location":"捷克"
},
{
"id":"p725",
"longitude":14.148901,
"latitude":50.148885,
"feature":"变电站",
"name":"变电站",
"location":"捷克"
},
{
"id":"p726",
"longitude":14.174756,
"latitude":50.160142,
"feature":"光伏站",
"name":"光伏站",
"location":"捷克"
},
{
"id":"p727",
"longitude":14.37418,
"latitude":50.192788,
"feature":"变电站",
"name":"变电站",
"location":"捷克"
},
{
"id":"p728",
"longitude":13.32735,
"latitude":50.346261,
"feature":"变电站",
"name":"变电站",
"location":"捷克"
},
{
"id":"p729",
"longitude":13.450408,
"latitude":50.485578,
"feature":"变电站",
"name":"变电站",
"location":"捷克"
},
{
"id":"p730",
"longitude":13.434471,
"latitude":50.455321,
"feature":"变电站",
"name":"变电站",
"location":"捷克"
},
{
"id":"p731",
"longitude":13.360385,
"latitude":50.830757,
"feature":"光伏站",
"name":"光伏站",
"location":"捷克"
},
{
"id":"p732",
"longitude":13.329774,
"latitude":50.876031,
"feature":"变电站",
"name":"变电站",
"location":"捷克"
},
{
"id":"p733",
"longitude":12.855367,
"latitude":50.887727,
"feature":"风电站",
"name":"风电站",
"location":"捷克"
},
{
"id":"p734",
"longitude":13.161479,
"latitude":50.865067,
"feature":"变电站",
"name":"变电站",
"location":"捷克"
},
{
"id":"p735",
"longitude":13.002292,
"latitude":50.865959,
"feature":"变电站",
"name":"变电站",
"location":"捷克"
},
{
"id":"p736",
"longitude":12.946846,
"latitude":50.858315,
"feature":"光伏站",
"name":"光伏站",
"location":"捷克"
},
{
"id":"p737",
"longitude":13.258608,
"latitude":50.419571,
"feature":"火电站",
"name":"火电站",
"location":"捷克"
},
{
"id":"p738",
"longitude":13.251917,
"latitude":50.411787,
"feature":"火电站",
"name":"火电站",
"location":"捷克"
},
{
"id":"p739",
"longitude":12.812866,
"latitude":50.858648,
"feature":"变电站",
"name":"变电站",
"location":"捷克"
},
{
"id":"p740",
"longitude":12.784936,
"latitude":50.79125,
"feature":"光伏站",
"name":"光伏站",
"location":"捷克"
},
{
"id":"p741",
"longitude":12.82707,
"latitude":50.881095,
"feature":"光伏站",
"name":"光伏站",
"location":"捷克"
},
{
"id":"p742",
"longitude":12.784338,
"latitude":50.759868,
"feature":"光伏站",
"name":"光伏站",
"location":"捷克"
},
{
"id":"p743",
"longitude":13.473071,
"latitude":50.753659,
"feature":"风电站",
"name":"风电站",
"location":"捷克"
},
{
"id":"p744",
"longitude":12.777908,
"latitude":50.870426,
"feature":"光伏站",
"name":"光伏站",
"location":"捷克"
},
{
"id":"p745",
"longitude":12.759353,
"latitude":50.825184,
"feature":"光伏站",
"name":"光伏站",
"location":"捷克"
},
{
"id":"p746",
"longitude":12.880724,
"latitude":50.518,
"feature":"变电站",
"name":"变电站",
"location":"捷克"
},
{
"id":"p747",
"longitude":16.699746,
"latitude":49.11398,
"feature":"变电站",
"name":"变电站",
"location":"捷克"
},
{
"id":"p748",
"longitude":17.657288,
"latitude":49.009797,
"feature":"光伏站",
"name":"光伏站",
"location":"捷克"
},
{
"id":"p749",
"longitude":17.658826,
"latitude":49.020711,
"feature":"光伏站",
"name":"光伏站",
"location":"捷克"
},
{
"id":"p750",
"longitude":17.61421,
"latitude":49.208332,
"feature":"光伏站",
"name":"光伏站",
"location":"捷克"
},
{
"id":"p751",
"longitude":17.521603,
"latitude":49.189636,
"feature":"光伏站",
"name":"光伏站",
"location":"捷克"
},
{
"id":"p752",
"longitude":17.790281,
"latitude":49.255672,
"feature":"光伏站",
"name":"光伏站",
"location":"捷克"
},
{
"id":"p753",
"longitude":17.418822,
"latitude":49.304881,
"feature":"光伏站",
"name":"光伏站",
"location":"捷克"
},
{
"id":"p754",
"longitude":12.803381,
"latitude":50.726829,
"feature":"光伏站",
"name":"光伏站",
"location":"捷克"
},
{
"id":"p755",
"longitude":12.820627,
"latitude":50.649912,
"feature":"光伏站",
"name":"光伏站",
"location":"捷克"
},
{
"id":"p756",
"longitude":16.691001,
"latitude":49.146973,
"feature":"光伏站",
"name":"光伏站",
"location":"捷克"
},
{
"id":"p757",
"longitude":16.688297,
"latitude":49.111528,
"feature":"光伏站",
"name":"光伏站",
"location":"捷克"
},
{
"id":"p758",
"longitude":16.727208,
"latitude":49.095677,
"feature":"光伏站",
"name":"光伏站",
"location":"捷克"
},
{
"id":"p759",
"longitude":16.896002,
"latitude":48.746021,
"feature":"光伏站",
"name":"光伏站",
"location":"捷克"
},
{
"id":"p760",
"longitude":17.460706,
"latitude":49.345994,
"feature":"光伏站",
"name":"光伏站",
"location":"捷克"
},
{
"id":"p761",
"longitude":17.49493,
"latitude":49.319811,
"feature":"光伏站",
"name":"光伏站",
"location":"捷克"
},
{
"id":"p762",
"longitude":-2.050498,
"latitude":52.15514,
"feature":"光伏站",
"name":"光伏站",
"location":"英国"
},
{
"id":"p763",
"longitude":-2.05339,
"latitude":52.156785,
"feature":"光伏站",
"name":"光伏站",
"location":"英国"
},
{
"id":"p764",
"longitude":-0.881134,
"latitude":51.251024,
"feature":"变电站",
"name":"变电站",
"location":"英国"
},
{
"id":"p765",
"longitude":-2.353137,
"latitude":51.716912,
"feature":"光伏站",
"name":"光伏站",
"location":"英国"
},
{
"id":"p766",
"longitude":-1.039493,
"latitude":50.917578,
"feature":"变电站",
"name":"变电站",
"location":"英国"
},
{
"id":"p767",
"longitude":-4.090148,
"latitude":52.92787,
"feature":"变电站",
"name":"变电站",
"location":"英国"
},
{
"id":"p768",
"longitude":-3.968946,
"latitude":52.980792,
"feature":"变电站",
"name":"变电站",
"location":"英国"
},
{
"id":"p769",
"longitude":-3.947366,
"latitude":52.927262,
"feature":"变电站",
"name":"变电站",
"location":"英国"
},
{
"id":"p770",
"longitude":-3.077953,
"latitude":53.229893,
"feature":"变电站",
"name":"变电站",
"location":"英国"
},
{
"id":"p771",
"longitude":-2.945843,
"latitude":53.267496,
"feature":"变电站",
"name":"变电站",
"location":"英国"
},
{
"id":"p772",
"longitude":-2.715235,
"latitude":53.309896,
"feature":"变电站",
"name":"变电站",
"location":"英国"
},
{
"id":"p773",
"longitude":-1.076293,
"latitude":51.336946,
"feature":"变电站",
"name":"变电站",
"location":"英国"
},
{
"id":"p774",
"longitude":-2.15155,
"latitude":51.394789,
"feature":"变电站",
"name":"变电站",
"location":"英国"
},
{
"id":"p775",
"longitude":-3.033157,
"latitude":53.22948,
"feature":"变电站",
"name":"变电站",
"location":"英国"
},
{
"id":"p776",
"longitude":-3.035025,
"latitude":53.224547,
"feature":"变电站",
"name":"变电站",
"location":"英国"
},
{
"id":"p777",
"longitude":-6.268119,
"latitude":52.736053,
"feature":"光伏站",
"name":"光伏站",
"location":"英国"
},
{
"id":"p778",
"longitude":-1.067869,
"latitude":51.269782,
"feature":"变电站",
"name":"变电站",
"location":"英国"
},
{
"id":"p779",
"longitude":-1.110024,
"latitude":51.326718,
"feature":"光伏站",
"name":"光伏站",
"location":"英国"
},
{
"id":"p780",
"longitude":-2.420303,
"latitude":51.625358,
"feature":"变电站",
"name":"变电站",
"location":"英国"
},
{
"id":"p781",
"longitude":-1.11428,
"latitude":51.310422,
"feature":"光伏站",
"name":"光伏站",
"location":"英国"
},
{
"id":"p782",
"longitude":-1.013248,
"latitude":51.419481,
"feature":"光伏站",
"name":"光伏站",
"location":"英国"
},
{
"id":"p783",
"longitude":-3.025472,
"latitude":53.227938,
"feature":"光伏站",
"name":"光伏站",
"location":"英国"
},
{
"id":"p784",
"longitude":-3.020423,
"latitude":53.241272,
"feature":"光伏站",
"name":"光伏站",
"location":"英国"
},
{
"id":"p785",
"longitude":-2.380768,
"latitude":51.741305,
"feature":"变电站",
"name":"变电站",
"location":"英国"
},
{
"id":"p786",
"longitude":-2.273214,
"latitude":51.738546,
"feature":"变电站",
"name":"变电站",
"location":"英国"
},
{
"id":"p787",
"longitude":-2.408889,
"latitude":51.642949,
"feature":"光伏站",
"name":"光伏站",
"location":"英国"
},
{
"id":"p788",
"longitude":-2.409395,
"latitude":51.659965,
"feature":"光伏站",
"name":"光伏站",
"location":"英国"
},
{
"id":"p789",
"longitude":-2.537416,
"latitude":51.736422,
"feature":"变电站",
"name":"变电站",
"location":"英国"
},
{
"id":"p790",
"longitude":-2.604264,
"latitude":51.888253,
"feature":"变电站",
"name":"变电站",
"location":"英国"
},
{
"id":"p791",
"longitude":-2.620007,
"latitude":52.054235,
"feature":"变电站",
"name":"变电站",
"location":"英国"
},
{
"id":"p792",
"longitude":-2.242596,
"latitude":52.312271,
"feature":"变电站",
"name":"变电站",
"location":"英国"
},
{
"id":"p793",
"longitude":-2.01345,
"latitude":52.431405,
"feature":"变电站",
"name":"变电站",
"location":"英国"
},
{
"id":"p794",
"longitude":-2.419612,
"latitude":51.68113,
"feature":"光伏站",
"name":"光伏站",
"location":"英国"
},
{
"id":"p795",
"longitude":-2.300877,
"latitude":51.730688,
"feature":"光伏站",
"name":"光伏站",
"location":"英国"
},
{
"id":"p796",
"longitude":-1.972489,
"latitude":52.251429,
"feature":"变电站",
"name":"变电站",
"location":"英国"
},
{
"id":"p797",
"longitude":-1.956224,
"latitude":52.126805,
"feature":"光伏站",
"name":"光伏站",
"location":"英国"
},
{
"id":"p798",
"longitude":-1.749205,
"latitude":52.406506,
"feature":"变电站",
"name":"变电站",
"location":"英国"
},
{
"id":"p799",
"longitude":-2.441364,
"latitude":51.800267,
"feature":"光伏站",
"name":"光伏站",
"location":"英国"
},
{
"id":"p800",
"longitude":-2.620166,
"latitude":51.885077,
"feature":"光伏站",
"name":"光伏站",
"location":"英国"
},
{
"id":"p801",
"longitude":-2.360325,
"latitude":51.738935,
"feature":"光伏站",
"name":"光伏站",
"location":"英国"
},
{
"id":"p802",
"longitude":-2.360969,
"latitude":51.718262,
"feature":"光伏站",
"name":"光伏站",
"location":"英国"
},
{
"id":"p803",
"longitude":-3.05272,
"latitude":53.028716,
"feature":"变电站",
"name":"变电站",
"location":"英国"
},
{
"id":"p804",
"longitude":-2.182721,
"latitude":52.389539,
"feature":"光伏站",
"name":"光伏站",
"location":"英国"
},
{
"id":"p805",
"longitude":-0.856802,
"latitude":51.402766,
"feature":"电站",
"name":"电站",
"location":"英国"
},
{
"id":"p806",
"longitude":-1.219354,
"latitude":50.913957,
"feature":"光伏站",
"name":"光伏站",
"location":"英国"
},
{
"id":"p807",
"longitude":-1.959661,
"latitude":52.125792,
"feature":"光伏站",
"name":"光伏站",
"location":"英国"
},
{
"id":"p808",
"longitude":-1.958293,
"latitude":52.122585,
"feature":"光伏站",
"name":"光伏站",
"location":"英国"
},
{
"id":"p809",
"longitude":0.340215,
"latitude":51.187359,
"feature":"光伏站",
"name":"光伏站",
"location":"英国"
},
{
"id":"p810",
"longitude":-1.195044,
"latitude":50.830858,
"feature":"光伏站",
"name":"光伏站",
"location":"英国"
},
{
"id":"p811",
"longitude":-1.034607,
"latitude":50.912213,
"feature":"光伏站",
"name":"光伏站",
"location":"英国"
},
{
"id":"p812",
"longitude":0.359226,
"latitude":51.179541,
"feature":"光伏站",
"name":"光伏站",
"location":"英国"
},
{
"id":"p813",
"longitude":-1.07747,
"latitude":50.888178,
"feature":"光伏站",
"name":"光伏站",
"location":"英国"
},
{
"id":"p814",
"longitude":-1.079835,
"latitude":50.88136,
"feature":"光伏站",
"name":"光伏站",
"location":"英国"
},
{
"id":"p815",
"longitude":-0.795501,
"latitude":50.763627,
"feature":"光伏站",
"name":"光伏站",
"location":"英国"
},
{
"id":"p816",
"longitude":-0.794163,
"latitude":50.862321,
"feature":"光伏站",
"name":"光伏站",
"location":"英国"
},
{
"id":"p817",
"longitude":-0.704377,
"latitude":50.839902,
"feature":"光伏站",
"name":"光伏站",
"location":"英国"
},
{
"id":"p818",
"longitude":-0.554649,
"latitude":50.828083,
"feature":"光伏站",
"name":"光伏站",
"location":"英国"
},
{
"id":"p819",
"longitude":-0.636777,
"latitude":50.813799,
"feature":"光伏站",
"name":"光伏站",
"location":"英国"
},
{
"id":"p820",
"longitude":-1.344783,
"latitude":50.886399,
"feature":"光伏站",
"name":"光伏站",
"location":"英国"
},
{
"id":"p821",
"longitude":-1.307348,
"latitude":50.949865,
"feature":"光伏站",
"name":"光伏站",
"location":"英国"
},
{
"id":"p822",
"longitude":-1.391269,
"latitude":51.008431,
"feature":"光伏站",
"name":"光伏站",
"location":"英国"
},
{
"id":"p823",
"longitude":-1.480287,
"latitude":50.963196,
"feature":"光伏站",
"name":"光伏站",
"location":"英国"
},
{
"id":"p824",
"longitude":-1.703109,
"latitude":50.75745,
"feature":"光伏站",
"name":"光伏站",
"location":"英国"
},
{
"id":"p825",
"longitude":-1.750256,
"latitude":50.757497,
"feature":"光伏站",
"name":"光伏站",
"location":"英国"
},
{
"id":"p826",
"longitude":-1.857015,
"latitude":50.796554,
"feature":"光伏站",
"name":"光伏站",
"location":"英国"
},
{
"id":"p827",
"longitude":-1.924133,
"latitude":50.8175,
"feature":"光伏站",
"name":"光伏站",
"location":"英国"
},
{
"id":"p828",
"longitude":-2.174201,
"latitude":50.710553,
"feature":"光伏站",
"name":"光伏站",
"location":"英国"
},
{
"id":"p829",
"longitude":-2.49485,
"latitude":50.628179,
"feature":"光伏站",
"name":"光伏站",
"location":"英国"
},
{
"id":"p830",
"longitude":-2.646994,
"latitude":50.812909,
"feature":"光伏站",
"name":"光伏站",
"location":"英国"
},
{
"id":"p831",
"longitude":-2.932619,
"latitude":50.78042,
"feature":"光伏站",
"name":"光伏站",
"location":"英国"
},
{
"id":"p832",
"longitude":-3.391859,
"latitude":50.65806,
"feature":"光伏站",
"name":"光伏站",
"location":"英国"
},
{
"id":"p833",
"longitude":-3.40687,
"latitude":50.765487,
"feature":"光伏站",
"name":"光伏站",
"location":"英国"
},
{
"id":"p834",
"longitude":-3.743423,
"latitude":50.505464,
"feature":"光伏站",
"name":"光伏站",
"location":"英国"
},
{
"id":"p835",
"longitude":5.232632,
"latitude":50.582144,
"feature":"风电站",
"name":"风电站",
"location":"比利时"
},
{
"id":"p836",
"longitude":5.261045,
"latitude":50.580399,
"feature":"光伏站",
"name":"光伏站",
"location":"比利时"
},
{
"id":"p837",
"longitude":5.481952,
"latitude":50.946802,
"feature":"风电站",
"name":"风电站",
"location":"比利时"
},
{
"id":"p838",
"longitude":5.435186,
"latitude":50.937068,
"feature":"光伏站",
"name":"光伏站",
"location":"比利时"
},
{
"id":"p839",
"longitude":5.373859,
"latitude":50.92706,
"feature":"变电站",
"name":"变电站",
"location":"比利时"
},
{
"id":"p840",
"longitude":5.374524,
"latitude":50.92554,
"feature":"变电站",
"name":"变电站",
"location":"比利时"
},
{
"id":"p841",
"longitude":5.228715,
"latitude":50.990806,
"feature":"变电站",
"name":"变电站",
"location":"比利时"
},
{
"id":"p842",
"longitude":2.762956,
"latitude":51.140403,
"feature":"光伏站",
"name":"光伏站",
"location":"比利时"
},
{
"id":"p843",
"longitude":3.012403,
"latitude":51.198571,
"feature":"光伏站",
"name":"光伏站",
"location":"比利时"
},
{
"id":"p844",
"longitude":3.787711,
"latitude":51.18828,
"feature":"光伏站",
"name":"光伏站",
"location":"比利时"
},
{
"id":"p845",
"longitude":3.771115,
"latitude":51.187704,
"feature":"风电站",
"name":"风电站",
"location":"比利时"
},
{
"id":"p846",
"longitude":5.505487,
"latitude":50.8764,
"feature":"变电站",
"name":"变电站",
"location":"比利时"
},
{
"id":"p847",
"longitude":5.53218,
"latitude":50.91192,
"feature":"风电站",
"name":"风电站",
"location":"比利时"
},
{
"id":"p848",
"longitude":5.512791,
"latitude":50.937661,
"feature":"变电站",
"name":"变电站",
"location":"比利时"
},
{
"id":"p849",
"longitude":5.515781,
"latitude":50.930445,
"feature":"变电站",
"name":"变电站",
"location":"比利时"
},
{
"id":"p850",
"longitude":5.486515,
"latitude":50.93967,
"feature":"变电站",
"name":"变电站",
"location":"比利时"
},
{
"id":"p851",
"longitude":2.574662,
"latitude":48.975145,
"feature":"变电站",
"name":"变电站",
"location":"法国"
},
{
"id":"p852",
"longitude":2.630714,
"latitude":48.966847,
"feature":"变电站",
"name":"变电站",
"location":"法国"
},
{
"id":"p853",
"longitude":2.260336,
"latitude":49.217567,
"feature":"变电站",
"name":"变电站",
"location":"法国"
},